PARENTSITE,PARENTSITE_ID,SUBSITE,SUBSITE_ID,MML_ID,BEACH_NO,FROM_TO,NO_RPT,REGION,REGNO,RCA,E_W_144,ROOK,TREND_70,TREND_90,TREND_00,CH_93R,PUPS_50,CH_PROPOSEDR,CH_93HO,NP_BRD_200,NP_NONBRD_100,CH_PROPOSEDHO,LAT,LON,HEM,SITE_ORIG/A-B,COMPLEX_ORIG,PUP,JUV,GPSID,IS_NO,SITE_NO,SEQ_NO,REDUNDANT,SUBSTR_CODE,SUBSTR_DESCR,ORIENT,NOTES,,
ADAK,401,ADAK/CAPE YAKAK,A,404,,,1,C ALEU,10,4,W,0,1,1,1,,,,,1,1,1,51.590,-176.948,W,ADAK/CAPE YAKAK,ADAK,1,,YAKAK,549,4,271.2,2,"""4,5""",OFFSHORE R,S,,,
ADAK,401,ADAK/LAKE POINT,B,403,,,1,C ALEU,10,4,W,1,1,1,1,1,1,1,,,,,51.625,-176.992,W,ADAK/LAKE POINT,ADAK,1,,LAKEP,549,3,271.1,2,"""4,5""","""SLAB-ROCK",SW,,,
ADAK/ARGONNE POINT,402,ADAK/ARGONNE POINT,A,402,,,1,C ALEU,10,4,W,0,1,1,0,,,,,,,,51.828,-176.907,W,ADAK/ARGONNE POINT,,,,ARGON,549,2,270.2,2,5,OFFSHORE S,W,,,
ADAK/CAPE KAGIGIKAK,403,ADAK/CAPE KAGIGIKAK,A,590,,,1,C ALEU,10,4,W,0,0,0,0,,,,,,,,51.629,-176.723,W,ADAK/CAPE KAGIGIKAK,,,,,,,,,,,,,,
ADAK/CAPE MOFFET,404,ADAK/CAPE MOFFET,A,401,,,1,C ALEU,10,4,W,0,1,1,0,,,,,,,,51.972,-176.722,W,ADAK/CAPE MOFFET,,,,MOFFT,549,1,270.1,2,5,OFFSHORE S,W,,,
ADAK/CRONE ISLAND,405,ADAK/CRONE ISLAND,A,405,,,1,C ALEU,10,4,W,0,0,0,1,,,,,,,,51.676,-176.613,W,ADAK/CRONE ISLAND,,,,CRONE,549,5,272,,4,SLAB-ROCK ,W,,,
ADAK/HEAD ROCK,406,ADAK/HEAD ROCK,A,567,,,1,C ALEU,10,4,W,0,0,0,0,,,,,,,,51.925,-176.527,W,ADAK/HEAD ROCK,,,,,,,,,,,,,,
AGLIGADAK,501,AGLIGADAK,A,374,,,1,C ALEU,10,5,W,0,1,1,1,1,,,,1,1,1,52.102,-172.903,W,AGLIGADAK,,1,1,AGLIG,171,0,248,,5,OFFSHORE S,S,,,
AMATIGNAK/KNOB POINT,301,AMATIGNAK/KNOB POINT,A,426,,,1,C ALEU,10,3,W,0,0,1,1,,,,,,,,51.250,-179.067,W,AMATIGNAK/KNOB POINT,,,1,KNOBP,801,1,290,2,5,OFFSHORE S,E,,,
AMATIGNAK/NITROF POINT,302,AMATIGNAK/NITROF POINT,A,427,,,1,C ALEU,10,3,W,0,1,1,1,,,,1,,1,1,51.216,-179.128,W,AMATIGNAK/NITROF POINT,,,1,NITRO,801,2,291,2,4,SM OFFSHOR,E,,,
AMATIGNAK/WEST,303,AMATIGNAK/WEST,A,594,,,1,C ALEU,10,3,W,0,0,0,0,,,,,,,,51.278,-179.144,W,AMATIGNAK/WEST,,,,,,,,,,,,,,
AMCHITKA/BIRD,201,AMCHITKA/BIRD,A,439,,,1,C ALEU,10,2,W,0,0,0,0,,,,,,,,51.663,178.628,E,AMCHITKA/BIRD,,,,BIRD2,837,6,302,,,SM OFFSHOR,,,,
AMCHITKA/CAPE IVAKIN,202,AMCHITKA/CAPE IVAKIN,A,434,,,1,C ALEU,10,2,W,0,1,1,0,,,,,1,,1,51.408,179.404,E,AMCHITKA/CAPE IVAKIN,,,,IVAKN,837,1,297,,,ROCKY,,,,
AMCHITKA/CHITKA POINT,203,AMCHITKA/CHITKA POINT,A,440,,,1,C ALEU,10,2,W,0,0,0,0,,,,,,,,51.590,179.008,E,AMCHITKA/CHITKA POINT,,,,CHTKA,837,7,303,,,SM OFFSHOR,,,,
AMCHITKA/COLUMN ROCK,204,AMCHITKA/COLUMN ROCK,A,438,,,1,C ALEU,10,2,W,1,0,1,1,1,1,1,,,,,51.539,178.821,E,AMCHITKA/COLUMN ROCK,,1,,COLRK,837,5,301,,4,SLAB-ROCK ,E,,,
AMCHITKA/EAST CAPE,205,AMCHITKA/EAST CAPE,A,435A,1,FROM,1,C ALEU,10,2,W,0,1,1,1,1,,,,1,1,1,51.371,179.466,E,AMCHITKA/EAST CAPE/A,AMCHITKA/EAST CAPE,1,,AMCH1,837,2,298,,4,SLAB-ROCK ,S,,,
AMCHITKA/EAST CAPE,205,AMCHITKA/EAST CAPE/B,B,435B,2,TO,0,C ALEU,10,2,W,0,1,1,1,1,,,,1,1,1,51.367,179.450,E,AMCHITKA/EAST CAPE/B,AMCHITKA/EAST CAPE,1,,AMCH1,837,2,298,,4,SLAB-ROCK ,S,,,
AMCHITKA/OMEGA POINT,208,AMCHITKA/OMEGA POINT,A,436,,,1,C ALEU,10,2,W,0,0,0,0,,,,,,,,51.357,179.387,E,AMCHITKA/OMEGA POINT,,,,OMGPT,837,3,299,,4,,,,,
AMCHITKA/ST. MAKARIUS,209,AMCHITKA/ST. MAKARIUS,A,437,,,1,C ALEU,10,2,W,0,0,1,0,,,,,,,,51.350,179.233,E,AMCHITKA/ST. MAKARIUS,,,,MAKAR,837,4,300,,5,OFFSHORE S,S,,,
AMLIA/CAPE MISTY,502,AMLIA/CAPE MISTY,A,377,,,1,C ALEU,10,5,W,0,0,0,0,,,,,,,,52.041,-173.838,W,AMLIA/CAPE MISTY,,,,MISTY,189,2,250,,,,,,,
AMLIA/EAST CAPE,503,AMLIA/EAST CAPE,A,376A,,,1,C ALEU,10,5,W,1,1,1,1,,1,1,1,1,1,,52.095,-172.964,W,AMLIA/EAST CAPE/A,AMLIA/EAST CAPE,,,AMLI1,189,1,249,,3,ROCKY,,,,
AMLIA/EAST CAPE,503,AMLIA/EAST CAPE/B,B,376B,,,1,C ALEU,10,5,W,1,1,1,1,,1,1,1,1,1,,52.107,-173.138,W,AMLIA/EAST CAPE/B,AMLIA/EAST CAPE,,,AMLI1,189,2,249,,3,ROCKY,,,,
AMLIA/EAST CAPE,503,AMLIA/EAST CAPE/C,C,376C,,,1,C ALEU,10,5,W,1,1,1,1,,1,1,1,1,1,,52.108,-173.1337,W,AMLIA/EAST CAPE/C,AMLIA/EAST CAPE,,,,,,,,,,,,,
AMLIA/SVIECH. HARBOR,504,AMLIA/SVIECH. HARBOR,A,378,,,1,C ALEU,10,5,W,0,0,1,1,,,,1,1,1,1,52.031,-173.398,W,AMLIA/SVIECH. HARBOR,,1,,SVIEC,189,3,251,,4,SLAB-ROCK ,"S,SE,SW",,,
AMTAGIS,407,AMTAGIS,A,381,,,1,C ALEU,10,4,W,0,0,0,0,,,,,,,,52.017,-174.433,W,AMTAGIS,,,,AMTG1,243,0,254,,3,ROCKY,,,,
AMUKTA+ROCKS,505,AMUKTA+ROCKS,A,365,,,1,C ALEU,10,5,W,0,1,1,1,,,,1,1,1,1,52.449,-171.306,W,AMUKTA+ROCKS,,,1,AMUKT,135,0,240,,3,ROCKY,,,,
ANAGAKSIK,408,ANAGAKSIK,A,394,,,1,C ALEU,10,4,W,0,1,1,1,,,,1,1,,1,51.852,-175.887,W,ANAGAKSIK,,,,ANAGA,441,0,265,,"""4,5""","""SLAB-ROCK",S,,,
ATKA/CAPE KOROVIN,409,ATKA/CAPE KOROVIN,A,385A,1,FROM,1,C ALEU,10,4,W,0,1,1,1,,,,,,,,52.313,-174.457,W,ATKA/CAPE KOROVIN/A,ATKA/CAPE KOROVIN,,,KORO1,279,2,256,,,,,,,
ATKA/CAPE KOROVIN,409,ATKA/CAPE KOROVIN/B,B,385B,2,TO,0,C ALEU,10,4,W,0,1,1,1,,,,,,,,52.321,-174.458,W,ATKA/CAPE KOROVIN/B,ATKA/CAPE KOROVIN,,,KORO1,279,2,256,,,,,,,
ATKA/NORTH CAPE,410,ATKA/NORTH CAPE,A,384,,,1,C ALEU,10,4,W,0,1,1,1,,,,1,1,1,1,52.401,-174.277,W,ATKA/NORTH CAPE,ATKA/NORTH CAPE,,1,ATKAN,279,1,255,,4,SLAB-ROCK ,,,,
ATKA/NORTH CAPE,410,ATKA/SE OF NORTH CAPE,B,384B,,,1,C ALEU,10,4,W,0,1,1,1,,,,1,1,1,1,52.4175,-174.1797,W,ATKA/SE OF NORTH CAPE,ATKA/NORTH CAPE,,,,,,,,,,,,,
ATKA/NORTH CAPE,410,ATKA/SW OF NORTH CAPE,C,595,,,1,C ALEU,10,4,W,0,1,1,1,,,,1,1,1,1,52.382,-174.323,W,ATKA/SW OF NORTH CAPE,ATKA/NORTH CAPE,,,,,,,,,,,,,
AYUGADAK,210,AYUGADAK,A,441,,,1,C ALEU,10,2,W,1,1,1,1,1,1,1,,,,,51.756,178.405,E,AYUGADAK,,1,,AYUGA,855,0,304,,"""2,6""","""COBBLE BE",SE,,,
BOBROF,304,BOBROF,A,411,,,1,C ALEU,10,3,W,0,0,0,0,,,,1,,1,1,51.897,-177.460,W,BOBROF,,,,BOBRO,585,0,277,,4,SLAB-ROCK ,W,,,
CARLISLE,506,CARLISLE,A,361,,,1,C ALEU,10,5,W,0,1,1,1,,,,,,1,1,52.925,-170.083,W,CARLISLE,,,,CARLI,63,0,236,,4,SM OFFSHOR,,,,
CHAGULAK,507,CHAGULAK,A,364,,,1,C ALEU,10,5,W,0,1,1,1,,,,1,1,1,1,52.559,-171.170,W,CHAGULAK,,,1,CHGLK,117,0,239,,4,SLAB-ROCK ,S,,,
CHUGINADAK,616,CHUGINADAK,A,360A,1,FROM,1,C ALEU,10,6,W,0,1,1,1,,,,1,1,1,1,52.778,-169.698,W,CHUGINADAK/A,CHUGINADAK,,1,CHUGN,45,0,235,,4,SLAB-ROCK ,E,,,
CHUGINADAK,616,CHUGINADAK/B,B,360B,2,TO,0,C ALEU,10,6,W,0,1,1,1,,,,1,1,1,1,52.777,-169.737,W,CHUGINADAK/B,CHUGINADAK,,1,CHUGN,45,0,235,,4,SLAB-ROCK ,E,,,
CHUGUL,411,CHUGUL,A,393,,,1,C ALEU,10,4,W,0,0,0,1,,,,,,,,51.917,-175.763,W,CHUGUL,,,,CHUGL,423,0,264,,4,SLAB-ROCK ,S,,,
FENIMORE,412,FENIMORE,A,391,,,1,C ALEU,10,4,W,0,0,1,1,,,,,,,,51.979,-175.545,W,FENIMORE,,,,FENIM,387,0,262,,4,SLAB ROCK,,,,
GARELOI,305,GARELOI,A,421,,,1,C ALEU,10,3,W,0,0,0,0,,,,,,,,51.745,-178.768,W,GARELOI,,,,GRLOI,729,0,286,,,,,,,
GRAMP ROCK,306,GRAMP ROCK,A,416,,,1,C ALEU,10,3,W,1,1,1,1,1,1,1,,,,,51.480,-178.343,W,GRAMP ROCK,,1,,GRAMP,639,0,281,,4,SLAB-ROCK ,SE,,,
GREAT SITKIN,413,GREAT SITKIN,A,396A,1,FROM,1,C ALEU,10,4,W,0,0,1,1,,,,1,1,1,1,52.100,-176.175,W,GREAT SITKIN/A,GREAT SITKIN,,,GSTK1,477,0,267,,6,OFFSHORE R,N,updated 3/12/14,,
GREAT SITKIN,413,GREAT SITKIN/B,B,396B,2,,0,C ALEU,10,4,W,0,0,1,1,,,,1,1,1,1,52.110,-176.117,W,GREAT SITKIN/B,GREAT SITKIN,,,GSTK1,477,0,267,,6,OFFSHORE R,N,updated 3/12/14,,
GREAT SITKIN,413,GREAT SITKIN/C,C,396C,3,TO,0,C ALEU,10,4,W,0,0,1,1,,,,1,1,1,1,52.106,-176.083,W,GREAT SITKIN/C,GREAT SITKIN,,,GSTK1,477,0,267,,6,OFFSHORE R,N,updated 3/12/14,,
HAWADAX (RAT),211,HAWADAX (RAT),A,442,,,1,C ALEU,10,2,W,0,0,1,1,,,,,,1,1,51.833,178.206,E,HAWADAX (RAT),,,1,RATIS,873,0,305,,4,SLAB-ROCK ,W,,,
HERBERT,508,HERBERT,A,362A,1,,1,C ALEU,10,5,W,0,1,1,1,,,,,,,,52.715,-170.080,W,HERBERT/A,HERBERT,,,HRBT1,81,0,237,,5,OFFSHORE S,W,,,
HERBERT,508,HERBERT/B,B,362B,2,,0,C ALEU,10,5,W,0,1,1,1,,,,,,,,52.723,-170.188,W,HERBERT/B,HERBERT,,,HRBT1,81,0,237,,5,OFFSHORE S,W,,,
HERBERT,508,HERBERT/C,C,362C,3,,0,C ALEU,10,5,W,0,1,1,1,,,,,,,,52.751,-170.191,W,HERBERT/C,HERBERT,,,HRBT1,81,0,237,,5,OFFSHORE S,W,,,
IGITKIN/SW POINT,414,IGITKIN/SW POINT,A,395,,,1,C ALEU,10,4,W,0,0,0,0,,,,,,,,51.983,-175.958,W,IGITKIN/SW POINT,,,,IGITK,459,0,266,,,,,,,
IKIGINAK,415,IKIGINAK,A,390,,,1,C ALEU,10,4,W,0,1,1,1,,,,,,,,51.975,-175.483,W,IKIGINAK,,,,IKIGI,369,0,261,,6,OFFSHORE R,E,,,
ILAK,307,ILAK,A,415,,,1,C ALEU,10,3,W,0,0,0,1,,,,,,,,51.479,-178.315,W,ILAK,,,,ILAKI,621,0,280,,5,OFFSHORE S,,,,
KAGALASKA,416,KAGALASKA,A,399,,,1,C ALEU,10,4,W,0,0,1,1,,,,,,1,1,51.871,-176.310,W,KAGALASKA,,,1,KAGAL,531,0,269,,,,,,,
KAGALASKA/RAGGED POINT,417,KAGALASKA/RAGGED POINT,A,624,,,1,C ALEU,10,4,W,0,1,0,0,,,,,,,,51.744,-176.286,W,KAGALASKA/RAGGED POINT,,,,,,,,,,,,,,
KAGAMIL,621,KAGAMIL,A,359,,,1,C ALEU,10,6,W,0,1,1,1,,,,1,1,,1,53.035,-169.683,W,KAGAMIL,,,,KAGAM,27,0,234,,5,OFFSHORE S,N,,,
KANAGA/CAPE CHUNU,308,KANAGA/CAPE CHUNU,A,410,,,1,C ALEU,10,3,W,0,0,0,1,,,,,,,,51.658,-177.642,W,KANAGA/CAPE CHUNU,,1,,CHUNU,567,4,276,,,,,,,
KANAGA/CAPE MIGA,309,KANAGA/CAPE MIGA,A,408,,,1,C ALEU,10,3,W,0,0,1,0,,,,,,,,51.940,-177.183,W,KANAGA/CAPE MIGA,KANAGA/CAPE MIGA,,,CMIGA,567,2,274,,"""5,6""","""OFFSHORE ",N,,,
KANAGA/CAPE MIGA,309,KANAGA/S OF CAPE MIGA,B,599,,,1,C ALEU,10,3,W,0,0,1,0,,,,,,,,51.922,-177.201,W,KANAGA/S OF CAPE MIGA,KANAGA/CAPE MIGA,,,,,,,,,,,,,
KANAGA/N CAPE,310,KANAGA/N CAPE,A,407,,,1,C ALEU,10,3,W,0,0,1,1,,,,1,1,1,1,51.942,-177.142,W,KANAGA/N CAPE,,,,KANNC,567,1,273,,"""5,6""","""OFFSHORE ",N,,,
KANAGA/SHIP ROCK,311,KANAGA/SHIP ROCK,A,409,,,1,C ALEU,10,3,W,1,0,1,1,,1,1,1,,,,51.778,-177.345,W,KANAGA/SHIP ROCK,,1,1,SHIPR,567,3,275,,5,OFFSHORE S,W,,,
KASATOCHI/NORTH POINT,418,KASATOCHI/NORTH POINT,A,388,,,1,C ALEU,10,4,W,1,1,1,1,1,1,1,,,,,52.185,-175.516,W,KASATOCHI/NORTH POINT,,1,,KASAT,333,0,259,,4,SLAB-ROCK ,N,,,
KAVALGA,312,KAVALGA,A,422,,,1,C ALEU,10,3,W,0,1,1,1,,,,1,1,1,1,51.576,-178.865,W,KAVALGA,,,,KAVL1,747,0,287,,5,OFFSHORE S,N,,,
KISKA/CAPE ST STEPHEN,212,KISKA/CAPE ST STEPHEN,A,454A,3,,0,C ALEU,10,2,W,1,1,1,1,1,1,1,,,,,51.895,177.201,E,KISKA/CAPE ST STEPHEN/A,KISKA/CAPE ST STEPHEN,1,,STPH1,981,3,313,,2,COBBLE BEA,"S,SW",,,
KISKA/CAPE ST STEPHEN,212,KISKA/CAPE ST STEPHEN/B,B,454B,2,,0,C ALEU,10,2,W,1,1,1,1,1,1,1,,,,,51.875,177.212,E,KISKA/CAPE ST STEPHEN/B,KISKA/CAPE ST STEPHEN,1,,STPH1,981,2,313,,2,COBBLE BEA,"S,SW",,,
KISKA/CAPE ST STEPHEN,212,KISKA/CAPE ST STEPHEN/C,C,454C,1,FROM,1,C ALEU,10,2,W,1,1,1,1,1,1,1,,,,,51.892,177.200,E,KISKA/CAPE ST STEPHENC,KISKA/CAPE ST STEPHEN,1,,STPH1,981,4,313,,2,COBBLE BEA,"S,SW",,,
KISKA/CAPE ST STEPHEN,212,KISKA/CAPE ST STEPHEN/D,D,454D,4,TO,0,C ALEU,10,2,W,1,1,1,1,1,1,1,,,,,51.896,177.204,E,KISKA/CAPE ST STEPHEN/D,KISKA/CAPE ST STEPHEN,1,,STPH1,981,4,313,,,OFFSHORE R,W,BULL ROCK,,
KISKA/GERTRUDE-BUKHTI,213,KISKA/GERTRUDE-BUKHTI,A,452A,1,FROM,1,C ALEU,10,2,W,0,0,0,1,,,,,,,,51.907,177.475,E,KISKA/GERTRUDE-BUKHTI/A,KISKA/GERTRUDE-BUKHTI,,,GRTR1,981,2,311,2,,,,,,
KISKA/GERTRUDE-BUKHTI,213,KISKA/GERTRUDE-BUKHTIA/B,B,452B,2,TO,0,C ALEU,10,2,W,0,0,0,1,,,,,,,,51.918,177.442,E,KISKA/GERTRUDE-BUKHTIA/B,KISKA/GERTRUDE-BUKHTI,,,GRTR1,981,2,311,2,,,,,,
KISKA/LIEF COVE,214,KISKA/LIEF COVE,A,455A,1,FROM,1,C ALEU,10,2,W,1,1,1,1,1,1,1,,,,,51.953,177.340,E,KISKA/LIEF COVE/A,KISKA/LIEF COVE,1,,LIEF1,981,5,314,,2,COBBLE BEA,"W,NW",,,
KISKA/LIEF COVE,214,KISKA/LIEF COVE/B,B,455B,2,TO,0,C ALEU,10,2,W,1,1,1,1,1,1,1,,,,,51.954,177.342,E,KISKA/LIEF COVE/B,KISKA/LIEF COVE,1,,LIEF1,981,5,314,,2,COBBLE BEA,"W,NW",,,
KISKA/PILLAR ROCK,215,KISKA/PILLAR ROCK,A,459,,,1,C ALEU,10,2,W,0,0,1,1,,,,,,,,52.120,177.363,E,KISKA/PILLAR ROCK,,,,PILLR,981,9,318,,,,,,,
KISKA/SIRIUS POINT,216,KISKA/SIRIUS POINT,A,458,1,FROM,1,C ALEU,10,2,W,0,0,0,0,,,,1,,1,1,52.130,177.612,E,KISKA/SIRIUS POINT,,,1,SRIUS,981,8,317,2,,,,,,
KISKA/SOBAKA-VEGA,217,KISKA/SOBAKA-VEGA,A,453A,1,FROM,1,C ALEU,10,2,W,0,0,1,1,,,,1,1,1,1,51.825,177.317,E,KISKA/SOBAKA-VEGA/A,KISKA/SOBAKA-VEGA,,,SOBK1,981,3,312,2,,,,,,
KISKA/SOBAKA-VEGA,217,KISKA/SOBAKA-VEGA/B,B,453B,2,TO,0,C ALEU,10,2,W,0,0,1,1,,,,1,1,1,1,51.808,177.342,E,KISKA/SOBAKA-VEGA/B,KISKA/SOBAKA-VEGA,,,SOBK1,981,3,312,2,,,,,,
KISKA/SOUTH HEAD,218,KISKA/SOUTH HEAD,A,451,,,1,C ALEU,10,2,W,0,0,0,1,,,,,,,,51.952,177.608,E,KISKA/SOUTH HEAD,,,,KSOHD,981,1,310.2,,,,,,,
KISKA/WITCHCRAFT POINT,219,KISKA/WITCHCRAFT POINT,A,456,,,1,C ALEU,10,2,W,0,0,0,1,,,,,,,,52.048,177.493,E,KISKA/WITCHCRAFT POINT,,,,WITCH,981,6,315,2,,,,,,
KISKA/WOLF POINT,220,KISKA/WOLF POINT,A,457,,,1,C ALEU,10,2,W,0,0,0,0,,,,,,,,52.117,177.558,E,KISKA/WOLF POINT,,,,WOLFP,981,7,316,2,,,,,,
KONIUJI/NORTH POINT,419,KONIUJI/NORTH POINT,A,387,,,1,C ALEU,10,4,W,0,0,0,1,,,,,,,,52.225,-175.142,W,KONIUJI/NORTH POINT,,,,KONUJ,315,0,258,,3,ROCKY,,,,
LITTLE SITKIN,221,LITTLE SITKIN,A,443,,,1,C ALEU,10,2,W,0,0,0,0,,,,1,,1,1,51.988,178.497,E,LITTLE SITKIN,,,1,SITKN,891,0,306,,,OFFSHORE R,,,,
LITTLE TANAGA STRAIT,420,LITTLE TANAGA STRAIT,A,397,,,1,C ALEU,10,4,W,0,1,1,1,,,,1,1,1,1,51.820,-176.229,W,LITTLE TANAGA STRAIT,,,1,LTANA,495,0,268,1,3,ROCKY,,deleted dupl labeled as critical habitat,,
LITTLE TANAGA STRAIT,420,LITTLE TANAGA STRAIT/B,B,397B,,,1,C ALEU,10,4,W,0,1,1,1,,,,1,1,1,1,51.820,-176.229,W,LITTLE TANAGA STRAIT,,,1,LTANA,495,0,268,1,3,ROCKY,,ADDED 10/10/2018 FROM 2018 ASSLAP NOTES,,
OGLIUGA,313,OGLIUGA,A,419,,,1,C ALEU,10,3,W,0,0,0,1,,,,,,,,51.616,-178.657,W,OGLIUGA,,,,OGLIU,693,0,284,,,,,,,
OGLODAK,421,OGLODAK,A,389,,,1,C ALEU,10,4,W,0,0,1,1,,,,,,1,1,51.977,-175.457,W,OGLODAK,,1,1,OGLOD,351,0,260,,6,OFFSHORE R,S,,,
SAGCHUDAK,422,SAGCHUDAK,A,382,,,1,C ALEU,10,4,W,0,0,0,0,,,,,,,,52.012,-174.485,W,SAGCHUDAK,,,,AMTG1,261,0,254.1,,3,ROCKY,,,,
SAGIGIK,509,SAGIGIK,A,380,,,1,C ALEU,10,5,W,0,1,1,1,,,,1,1,,1,52.008,-173.156,W,SAGIGIK,,,1,SAGIG,225,0,253,,4,SLAB-ROCK ,,,,
SALT,423,SALT,A,386,,,1,C ALEU,10,4,W,0,1,1,1,,,,,,1,1,52.175,-174.642,W,SALT,SALT,,,SALTI,297,0,257,,3,ROCKY,,,,
SALT,423,SALT/SE,B,386A,,,1,C ALEU,10,4,W,0,1,1,1,,,,,,1,1,52.161,-174.622,W,SALT/SE,SALT,,,,,,,,,,,,,
SEA LION ROCK (KISKA),222,SEA LION ROCK (KISKA),A,447,,,1,C ALEU,10,2,W,0,0,1,1,,,,,,,,51.880,177.980,E,SEA LION ROCK (KISKA),,,,SLR4K,927,0,309,,,,,,,
SEGUAM/SADDLERIDGE,510,SEGUAM/SADDLERIDGE,A,369,,,1,C ALEU,10,5,W,1,1,1,1,1,1,1,,,,,52.348,-172.568,W,SEGUAM/SADDLERIDGE,,1,,SADL1,153,3,243,,2,COBBLE BEA,N,,,
SEGUAM/TURF POINT,511,SEGUAM/FINCH POINT,A,367A,1,FROM,1,C ALEU,10,5,W,0,1,1,0,,,,1,,1,1,52.390,-172.462,W,SEGUAM/FINCH POINT/A,SEGUAM/TURF POINT,,1,FNCH1,153,1,241,2,,,N,,,
SEGUAM/TURF POINT,511,SEGUAM/FINCH POINT,B,367B,2,TO,0,C ALEU,10,5,W,0,1,1,0,,,,1,,1,1,52.388,-172.405,W,SEGUAM/FINCH POINT/B,SEGUAM/TURF POINT,,1,FNCH1,153,1,241,2,,,N,,,
SEGUAM/TURF POINT,510,SEGUAM/FINCH POINT W,B,367B,2,TO,0,C ALEU,10,5,W,0,1,1,0,,,,1,,1,1,52.388,-172.405,W,SEGUAM/FINCH POINT/B,SEGUAM/TURF POINT,,1,FNCH1,153,1,241,2,,,N,ADDED 10/10/2018 FROM 2018 ASSLAP NOTES,,
SEGUAM/TURF POINT,511,SEGUAM/LAVA COVE,C,371,,,1,C ALEU,10,5,W,0,1,1,0,,,,,,,,52.267,-172.475,W,SEGUAM/LAVA COVE,SEGUAM/TURF POINT,,1,LAVAC,153,5,245,2,3,ROCKY,S,,,
SEGUAM/TURF POINT,511,SEGUAM/LAVA POINT,D,372,,,1,C ALEU,10,5,W,0,1,1,0,,,,,,,,52.275,-172.400,W,SEGUAM/LAVA POINT,SEGUAM/TURF POINT,,1,LAVAP,153,6,246,2,4,SLAB-ROCK ,S,,,
SEGUAM/TURF POINT,511,SEGUAM/MOUNDHILL POINT,E,600,,,1,C ALEU,10,5,W,0,0,0,0,,,,,,,,52.301,-172.346,W,SEGUAM/MOUNDHILL POINT,SEGUAM/TURF POINT,,,,,,,,,,,,,
SEGUAM/TURF POINT,511,SEGUAM/SW RIP,F,368,,,1,C ALEU,10,5,W,0,1,1,0,,,,,,,,52.251,-172.608,W,SEGUAM/SW RIP,SEGUAM/TURF POINT,,,SWRIP,153,2,243,2,,,SW,,,
SEGUAM/TURF POINT,511,SEGUAM/TURF POINT,G,370,,,1,C ALEU,10,5,W,0,1,1,1,,,,1,,1,1,52.259,-172.520,W,SEGUAM/TURF POINT,SEGUAM/TURF POINT,1,1,TURFP,153,4,244,2,4,SLAB-ROCK ,S,,,
SEGUAM/TURF POINT,511,SEGUAM/WHARF POINT,H,373,,,1,C ALEU,10,5,W,0,1,1,0,,,,,,1,1,52.359,-172.316,W,SEGUAM/WHARF POINT,SEGUAM/TURF POINT,,1,WHARF,153,7,247,,,,E,,,
SEGULA/CHUGUL POINT,223,SEGULA/CHUGUL POINT,A,446,,,1,C ALEU,10,2,W,0,0,0,0,,,,,,1,1,51.998,178.097,E,SEGULA/CHUGUL POINT,,,,SEGCH,909,2,308,,,,,,,
SEGULA/GULA POINT,224,SEGULA/GULA POINT,A,445,,,1,C ALEU,10,2,W,0,0,0,0,,,,1,,1,1,52.051,178.147,E,SEGULA/GULA POINT,,,,SEGGU,909,1,307,,,,,,,
SEMISOPOCHNOI/PETREL,225,SEMISOPOCHNOI/PETREL,A,430A,1,FROM,1,C ALEU,10,2,W,0,0,1,1,1,,,,,1,1,52.023,179.615,E,SEMISOPOCHNOI/PETREL/A,SEMISOPOCHNOI/PETREL,,,PTRL1,819,2,292.4,2,3,BOULDER BE,E,,,
SEMISOPOCHNOI/PETREL,225,SEMISOPOCHNOI/PETREL/B,B,430B,2,TO,0,C ALEU,10,2,W,0,0,1,1,1,,,,,1,1,52.025,179.650,E,SEMISOPOCHNOI/PETREL/B,SEMISOPOCHNOI/PETREL,,,PTRL1,819,2,292.4,2,3,BOULDER BE,E,,,
SEMISOPOCHNOI/POCHNOI,226,SEMISOPOCHNOI/POCHNOI,A,429,,,1,C ALEU,10,2,W,0,0,1,1,1,,,,1,1,1,51.955,179.767,E,SEMISOPOCHNOI/POCHNOI,,1,,POCHN,819,1,292.2,2,4,SLAB-ROCK ,E,,,
SEMISOPOCHNOI/SW KNOB,227,SEMISOPOCHNOI/SW KNOB,A,432,,,1,C ALEU,10,2,W,0,0,1,0,,,,,,,,51.915,179.509,E,SEMISOPOCHNOI/SW KNOB,,,,SWKNB,819,4,292.8,2,4,SLAB-ROCK ,E,,,
SEMISOPOCHNOI/TUMAN POINT,228,SEMISOPOCHNOI/TUMAN POINT,A,431,,,1,C ALEU,10,2,W,0,0,1,0,,,,,,1,1,51.963,179.482,E,SEMISOPOCHNOI/TUMAN POINT,,,,TUMAN,819,3,292.6,2,4,SLAB-ROCK ,E,,,
SILAK,424,SILAK,A,398,,,1,C ALEU,10,4,W,0,1,0,0,,,,,,,,51.815,-176.246,W,SILAK,,,1,SILAK,513,0,268.5,2,3,ROCKY,,,,
SKAGUL/S. POINT,314,SKAGUL/S. POINT,A,420,,,1,C ALEU,10,3,W,0,0,0,0,,,,,,,,51.583,-178.567,W,SKAGUL/S. POINT,,,,SKAGL,711,0,285,,,ROCK,,,,
TAG,315,TAG,A,418,,,1,C ALEU,10,3,W,1,1,1,1,1,1,1,,,,,51.557,-178.577,W,TAG,,1,,TAGIS,675,0,283,,4,SLAB-ROCK ,S,,,
TAGALAK,425,TAGALAK,A,392,,,1,C ALEU,10,4,W,0,0,0,1,,,,,,1,1,51.960,-175.616,W,TAGALAK,TAGALAK,,,TAGLK,405,0,263,,5,OFFSHORE S,S,,,
TAGALAK,425,TAGALAK/PASS,B,602,,,1,C ALEU,10,4,W,0,0,0,0,,,,,,1,1,51.948,-175.747,W,TAGALAK/PASS,TAGALAK,,,,,,,,,,,,,
TANADAK (AMLIA),512,TANADAK (AMLIA),A,379,,,1,C ALEU,10,5,W,0,1,1,1,,,,1,1,1,1,52.070,-172.960,W,TANADAK (AMLIA),,,,TNDKA,207,0,252,,4,SLAB-ROCK ,,,,
TANADAK (KISKA),229,TANADAK (KISKA),A,448,,,1,C ALEU,10,2,W,0,0,1,1,,,,1,1,,1,51.947,177.780,E,TANADAK (KISKA),,,,TNDKK,945,0,310,,3,ROCKY,,,,
TANAGA/BUMPY POINT,316,TANAGA/BUMPY POINT,A,413A,1,FROM,1,C ALEU,10,3,W,0,0,1,1,,,,1,1,1,1,51.917,-177.975,W,TANAGA/BUMPY POINT/A,TANAGA/BUMPY POINT,,1,BUMP1,603,1,278,,3,ROCKY,,,,
TANAGA/BUMPY POINT,316,TANAGA/BUMPY POINT/B,B,413B,2,TO,0,C ALEU,10,3,W,0,0,1,1,,,,1,1,1,1,51.917,-177.952,W,TANAGA/BUMPY POINT/B,TANAGA/BUMPY POINT,,1,BUMP1,603,1,278,,3,ROCKY,,,,
TANAGA/CAPE SASMIK,317,TANAGA/CAPE SASMIK,A,414,,,1,C ALEU,10,3,W,0,0,1,1,,,,,,,,51.597,-177.938,W,TANAGA/CAPE SASMIK,,,1,SASM1,603,2,279,,3,ROCKY,,,,
TANAGA/CAPE SUDAK,318,TANAGA/CAPE SUDAK,A,572,,,1,C ALEU,10,3,W,0,0,0,0,,,,,,,,51.855,-177.616,W,TANAGA/CAPE SUDAK,,,,,,,,,,,,KT rocks,,
TWIN ROCKS (KISKA),230,TWIN ROCKS (KISKA),A,449,,,1,C ALEU,10,2,W,0,0,0,1,,,,,,,,51.920,177.618,E,TWIN ROCKS (KISKA),,,,TWINK,963,0,310.1,,,,,,,
UGIDAK,319,UGIDAK,A,417,,,1,C ALEU,10,3,W,0,1,1,1,,,,1,1,1,1,51.583,-178.509,W,UGIDAK,,,,UGDAK,657,0,282,,4,SLAB-ROCK ,SW,,,
ULAK/HASGOX POINT,320,ULAK/HASGOX POINT,A,424,,,1,C ALEU,10,3,W,1,1,1,1,1,1,1,,,,,51.308,-178.991,W,ULAK/HASGOX POINT,,1,,HSGX1,783,0,289,,"""4,5""","""SLAB-ROCK",ALL,,,
ULIAGA,643,ULIAGA,A,358,,,1,C ALEU,10,6,W,0,0,1,1,,,,1,1,,1,53.058,-169.795,W,ULIAGA,,,1,ULIA1,9,0,233,,4,SLAB-ROCK ,N,updated 3/12/14,,
UNALGA+DINKUM ROCKS,321,UNALGA+DINKUM ROCKS,A,423,,,1,C ALEU,10,3,W,0,1,1,1,,,,1,1,1,1,51.561,-179.069,W,UNALGA+DINKUM ROCKS,,,1,UNAL1,765,0,288,,5,OFFSHORE S,S,,,
YUNASKA,513,YUNASKA,A,363,,,1,C ALEU,10,5,W,1,1,1,1,1,1,1,,,,,52.690,-170.606,W,YUNASKA,,1,,YUNAS,99,0,238,,"""2,6""","""COBBLE BE",E,,,
AFOGNAK/TONKI CAPE,901,AFOGNAK/TONKI CAPE,A,210,,,1,C GULF,7,9,W,0,0,1,1,,,,,,,,58.352,-151.987,W,AFOGNAK/TONKI CAPE,,1,,TONKI,380,1,102,,5,OFFSHORE S,N,,,
AGHIYUK,801,AGHIYUK,A,246,,,1,C GULF,7,8,W,0,0,0,0,,,,,,,,56.157,-156.808,W,AGHIYUK,,,,AGHIY,886,0,137,,"""4,5""","""SLAB-ROCK",,,,
AIUGNAK COLUMNS,802,AIUGNAK COLUMNS,A,243,,,1,C GULF,7,8,W,0,0,0,1,,,,,,,,56.879,-156.568,W,AIUGNAK COLUMNS,,,,AIUGN,817,0,134,,5,OFFSHORE S,ALL,,,
CAPE DOUGLAS,902,CAPE DOUGLAS,A,234,,,1,C GULF,7,9,W,0,0,0,1,,,,,,,,58.858,-153.233,W,CAPE DOUGLAS,,,,DOUGL,610,0,125,,,,,,,
CAPE GULL,804,CAPE GULL,A,238A,1,FROM,1,C GULF,7,8,W,0,0,0,1,,,,1,1,,1,58.192,-154.160,W,CAPE GULL/A,CAPE GULL,,,GULL1,702,0,129,,,,,,,
CAPE GULL,804,CAPE GULL/B,B,238B,2,TO,0,C GULF,7,8,W,0,0,0,1,,,,1,1,,1,58.208,-154.175,W,CAPE GULL/B,CAPE GULL,,,GULL1,702,0,129,,,,,,,
CAPE KULIAK,805,CAPE KULIAK,A,239,,,1,C GULF,7,8,W,0,0,0,0,,,,1,1,,1,58.133,-154.208,W,CAPE KULIAK,,,,KULIA,725,0,130,,6,OFFSHORE R,E,,,
CAPE NUKSHAK,903,CAPE NUKSHAK,A,236,,,1,C GULF,7,9,W,0,0,0,1,,,,,,,,58.392,-153.982,W,CAPE NUKSHAK,,,,NUKSH,656,0,127,,,,,,,
CAPE UGYAK,806,CAPE UGYAK,A,237,,,1,C GULF,7,8,W,0,0,0,1,,,,,,,,58.283,-154.100,W,CAPE UGYAK,,,,UGYAK,679,0,128,,,,,,,
CHIRIKOF,808,CHIRIKOF,A,248A,1,FROM,1,C GULF,7,8,W,1,1,1,1,1,1,1,,,,,55.774,-155.724,W,CHIRIKOF/A,CHIRIKOF,1,,CHIR1,932,0,139,,2,COBBLE BEA,S,,,
CHIRIKOF,808,CHIRIKOF/B,B,248B,2,TO,0,C GULF,7,8,W,1,1,1,1,1,1,1,,,,,55.770,-155.691,W,CHIRIKOF/B,CHIRIKOF,1,,CHIR1,932,0,139,,2,COBBLE BEA,S,,,
CHOWIET,809,CHOWIET,A,247A,1,FROM,1,C GULF,7,8,W,1,1,1,1,1,1,1,,,,,56.001,-156.687,W,CHOWIET/A,CHOWIET,1,,CHOW1,909,0,138,,3,ROCKY,SE,,,
CHOWIET,809,CHOWIET/B,B,247B,2,,0,C GULF,7,8,W,1,1,1,1,1,1,1,,,,,56.004,-156.693,W,CHOWIET/B,CHOWIET,1,,CHOW1,909,0,138,,3,ROCKY,SE,,,
CHOWIET,809,CHOWIET/C,C,247C,3,,0,C GULF,7,8,W,1,1,1,1,1,1,1,,,,,56.010,-156.691,W,CHOWIET/C,CHOWIET,1,,CHOW1,909,0,138,,3,ROCKY,SE,,,
CHOWIET,809,CHOWIET/D,D,247D,4,,0,C GULF,7,8,W,1,1,1,1,1,1,1,,,,,56.019,-156.684,W,CHOWIET/D,CHOWIET,1,,CHOW1,909,0,138,,3,ROCKY,SE,,,
CHOWIET,809,CHOWIET/E,E,247E,5,,0,C GULF,7,8,W,1,1,1,1,1,1,1,,,,,56.028,-156.685,W,CHOWIET/E,CHOWIET,1,,CHOW1,909,0,138,,3,ROCKY,SE,,,
CHOWIET,809,CHOWIET/F,F,247F,6,TO,0,C GULF,7,8,W,1,1,1,1,1,1,1,,,,,56.026,-156.678,W,CHOWIET/F,CHOWIET,1,,CHOW1,909,0,138,,3,ROCKY,SE,,,
EAST CHUGACH,1011,EAST CHUGACH,A,193,,,1,C GULF,7,10,W,0,0,1,1,,,,,,,,59.105,-151.443,W,EAST CHUGACH,,1,,ECHUG,81,0,87,,,,,,,
ELIZABETH/CAPE ELIZABETH,1012,ELIZABETH/CAPE ELIZABETH,A,197,,,1,C GULF,7,10,W,0,0,1,1,,,,,1,1,1,59.156,-151.885,W,ELIZABETH/CAPE ELIZABETH,,1,,CELIZ,173,0,91,,6,OFFSHORE R,SW,,,
FLAT,1013,FLAT,A,198,,,1,C GULF,7,10,W,0,0,0,1,,,,,,1,1,59.332,-151.994,W,FLAT,,,,FLATI,196,0,92,,,SMALL ROCK,,,,
GORE POINT,1015,GORE POINT,A,192,,,1,C GULF,7,10,W,0,0,1,1,,,,1,1,1,1,59.200,-150.967,W,GORE POINT,,1,,GOREP,58,0,86,,3,ROCKY,,,,
KILOKAK ROCKS,811,KILOKAK ROCKS,A,242,,,1,C GULF,7,8,W,0,0,0,1,,,,,1,,1,57.156,-156.275,W,KILOKAK ROCKS,,,,KILOK,794,0,133,,5,OFFSHORE S,S,,,
KODIAK/BIRD ROCK,904,KODIAK/BIRD ROCK,A,566,,,1,C GULF,7,9,W,0,0,0,0,,,,,,,,57.692,-153.910,W,KODIAK/BIRD ROCK,,,,,0,0,,,,,,,,
KODIAK/CAPE ALITAK,812,KODIAK/CAPE ALITAK,A,222,,,1,C GULF,7,8,W,0,0,0,1,,,,,,,,56.842,-154.312,W,KODIAK/CAPE ALITAK,,,,ALTAK,472,5,113,,,,,,,
KODIAK/CAPE BARNABAS,905,KODIAK/CAPE BARNABAS,A,218,,,1,C GULF,7,9,W,0,1,1,1,,,,1,1,1,1,57.167,-152.877,W,KODIAK/CAPE BARNABAS,,1,,BARNB,472,3,109,,,,,,,
KODIAK/CAPE CHINIAK,906,KODIAK/CAPE CHINIAK,A,215A,1,FROM,1,C GULF,7,9,W,0,1,1,1,,,,1,1,1,1,57.635,-152.138,W,KODIAK/CAPE CHINIAK/A,KODIAK/CAPE CHINIAK,1,1,CHINI,472,1,106,,4,SM OFFSHOR,,,,
KODIAK/CAPE CHINIAK,906,KODIAK/CAPE CHINIAK/B,B,215B,2,TO,0,C GULF,7,9,W,0,1,1,1,,,,1,1,1,1,57.629,-152.137,W,KODIAK/CAPE CHINIAK/B,KODIAK/CAPE CHINIAK,1,1,CHINI,472,1,106,,4,SM OFFSHOR,,,,
KODIAK/CAPE IKOLIK,813,KODIAK/CAPE IKOLIK,A,223,,,1,C GULF,7,8,W,0,0,0,1,,,,1,,1,1,57.286,-154.793,W,KODIAK/CAPE IKOLIK,,,1,IKOLK,472,6,114,,"""4,6""","""SLAB-ROCK","""W,SW""",,,
KODIAK/CAPE KULIUK,907,KODIAK/CAPE KULIUK,A,227,,,1,C GULF,7,9,W,0,0,0,1,,,,,,,,57.808,-153.933,W,KODIAK/CAPE KULIUK,,,,KULIU,472,10,118,,,,,,,
KODIAK/CAPE PARAMANOF,908,KODIAK/CAPE PARAMANOF,A,232,,,1,C GULF,7,9,W,0,0,0,1,,,,,,,,58.305,-153.047,W,KODIAK/CAPE PARAMANOF,,,,PARAM,472,14,123,,3,BOULDER BE,,,,
KODIAK/CAPE UGAT,909,KODIAK/CAPE UGAT,A,228,,,1,C GULF,7,9,W,0,0,1,1,,,,1,1,1,1,57.873,-153.851,W,KODIAK/CAPE UGAT,,1,1,CUGAT,472,11,119,,6,OFFSHORE R,E,,,
KODIAK/CAPE UYAK,814,KODIAK/CAPE UYAK,A,226,,,1,C GULF,7,8,W,0,0,0,0,,,,,,,,57.633,-154.350,W,KODIAK/CAPE UYAK,,,,CUYAK,472,9,117,,,,,,,
KODIAK/GULL POINT,910,KODIAK/GULL POINT,A,217,,,1,C GULF,7,9,W,0,0,1,1,,,,1,1,1,1,57.358,-152.603,W,KODIAK/GULL POINT,,1,,GULLP,472,2,108,,5,OFFSHORE S,E,,,
KODIAK/MALINA POINT,911,KODIAK/MALINA POINT,A,230,,,1,C GULF,7,9,W,0,0,0,1,,,,,,,,58.033,-153.367,W,KODIAK/MALINA POINT,,,,MALIN,472,12,121,,,,,,,
KODIAK/STEEP CAPE,912,KODIAK/STEEP CAPE,A,231,,,1,C GULF,7,9,W,0,0,1,1,,,,,,,,58.211,-153.190,W,KODIAK/STEEP CAPE,,,,STEPC,472,13,122,,6,OFFSHORE R,W,,,
KODIAK/STURGEON HEAD,815,KODIAK/STURGEON HEAD,A,225,,,1,C GULF,7,8,W,0,0,0,0,,,,,,,,57.517,-154.617,W,KODIAK/STURGEON HEAD,,,,STURG,472,8,116,,,,,,,
KODIAK/SUNDSTROM,816,KODIAK/SUNDSTROM,A,221,,,1,C GULF,7,8,W,0,0,0,1,,,,,,,,56.683,-154.150,W,KODIAK/SUNDSTROM,,,,SUNDS,472,4,112,,,,,,,
KODIAK/TOMBSTONE ROCKS,817,KODIAK/TOMBSTONE ROCKS,A,224,,,1,C GULF,7,8,W,0,0,0,1,,,,,,,,57.353,-154.819,W,KODIAK/TOMBSTONE ROCKS,,,,TOMBS,472,7,115,,,,,,,
LATAX ROCKS,913,LATAX ROCKS,A,206,,,1,C GULF,7,9,W,0,1,1,1,,,,1,1,1,1,58.669,-152.521,W,LATAX ROCKS,,1,1,LATAX,311,0,99,,"""3,4""","""BOULDER B","""S,N""",,,
LONG ISLAND,914,LONG ISLAND,A,213,,,1,C GULF,7,9,W,0,1,1,1,,,,1,,1,1,57.780,-152.215,W,LONG ISLAND,,1,1,LONGI,449,0,105,,"""5,6""","""OFFSHORE ",SE,,,
MARMOT,915,MARMOT,A,212A,1,FROM,1,C GULF,7,9,W,1,1,1,1,1,1,1,,,,,58.169,-151.854,W,MARMOT/A,MARMOT,1,,MRMT1,426,0,104,,"""2,3,6""","""COBBLE BE",E,,,
MARMOT,915,MARMOT/B,B,212B,2,TO,0,C GULF,7,9,W,1,1,1,1,1,1,1,,,,,58.205,-151.800,W,MARMOT/B,MARMOT,1,,MRMT1,426,0,104,,"""2,3,6""","""COBBLE BE",E,,,
NAGAHUT ROCKS,1019,NAGAHUT ROCKS,A,196,,,1,C GULF,7,10,W,0,0,1,1,,,,1,1,,1,59.100,-151.772,W,NAGAHUT ROCKS,,1,,NAGAH,150,0,90,,4,SM ROCKY I,,,,
NAGAI ROCKS,820,NAGAI ROCKS,A,249A,1,FROM,1,C GULF,7,8,W,0,0,1,1,,,,1,1,1,1,55.830,-155.790,W,NAGAI ROCKS/A,NAGAI ROCKS,1,1,NAGRK,955,0,140,,4,SLAB-ROCK ,SW,,,
NAGAI ROCKS,820,NAGAI ROCKS/B,B,249B,2,TO,0,C GULF,7,8,W,0,0,1,1,,,,1,1,1,1,55.824,-155.794,W,NAGAI ROCKS/B,NAGAI ROCKS,1,1,NAGRK,955,0,140,,4,SLAB-ROCK ,SW,,,
NOISY,916,NOISY,A,229,,,1,C GULF,7,9,W,0,0,0,1,,,,,,,,57.933,-153.558,W,NOISY,,,,NOISY,564,0,120,,,,,,,
NUKA POINT,1020,NUKA POINT,A,191,,,1,C GULF,7,10,W,0,0,0,1,,,,,,,,59.300,-150.717,W,NUKA POINT,,,,NUKAP,35,0,85,,,,,,,
OUTER (PYE),1021,OUTER (PYE),A,190A,1,FROM,1,C GULF,7,10,W,1,0,1,1,1,1,1,,,,,59.346,-150.407,W,OUTER (PYE)/A,OUTER (PYE),1,,OUTR1,12,0,84,,4*3,SLAB-ROCK ,"S,SE",,,
OUTER (PYE),1021,OUTER (PYE)/B,B,190B,2,TO,0,C GULF,7,10,W,1,0,1,1,1,1,1,,,,,59.345,-150.394,W,OUTER (PYE)/B,OUTER (PYE),1,,OUTR1,12,0,84,,4*3,SLAB-ROCK ,"S,SE",,,
PERL,1022,PERL,A,194,,,1,C GULF,7,10,W,0,0,1,1,,,,,1,1,1,59.095,-151.660,W,PERL,,1,1,PERLI,104,0,88,,4,SLAB-ROCK ,S,,,
PERL ROCKS,1023,PERL ROCKS,A,195,,,1,C GULF,7,10,W,0,0,0,1,,,,,,,,59.090,-151.693,W,PERL ROCKS,,,1,PERLR,127,0,89,,,,,,,
PUALE BAY,821,PUALE BAY,A,241,,,1,C GULF,7,8,W,0,0,1,1,,,,1,1,1,1,57.677,-155.385,W,PUALE BAY,,,1,PUALE,771,0,132,,5,OFFSHORE S,S,,,
SEA LION ROCKS (MARMOT),917,SEA LION ROCKS (MARMOT),A,211,,,1,C GULF,7,9,W,0,1,1,1,,,,1,1,1,1,58.342,-151.814,W,SEA LION ROCKS (MARMOT),,1,,SLR1M,403,0,103,,4,SLAB-ROCK ,ALL,,,
SEA OTTER,918,SEA OTTER,B,207,,,1,C GULF,7,9,W,0,0,1,1,,,,1,1,1,1,58.520,-152.223,W,SEA OTTER,SEA OTTER,1,1,SOTTR,334,0,100,,4,SLAB-ROCK ,S,,,
SEA OTTER,918,SEA OTTER/RK NEAR,A,208,,,1,C GULF,7,9,W,0,0,1,0,,,,1,1,1,1,58.508,-152.200,W,RK NEAR SEA OTTER,SEA OTTER,1,,RKSOT,357,0,101,,4,SM ROCKY I,,,,
SHAKUN ROCKS,919,SHAKUN ROCKS,A,235,,,1,C GULF,7,9,W,0,0,1,1,,,,1,1,1,1,58.547,-153.692,W,SHAKUN ROCKS,,,1,SHAKN,633,0,126,,4,SLAB-ROCK ,E,,,
SHAW,920,SHAW,A,233,,,1,C GULF,7,9,W,0,0,0,1,,,,,1,,1,59.000,-153.375,W,SHAW,,,,SHAWI,587,0,124,,6,OFFSHORE R,E,,,
SITKINAK/CAPE SITKINAK,921,SITKINAK/CAPE SITKINAK,A,220,,,1,C GULF,7,9,W,0,1,1,1,,,,1,1,1,1,56.571,-153.852,W,SITKINAK/CAPE SITKINAK,,1,,STKN1,541,0,111,,5,OFFSHORE S,ALL,,,
SUD,922,SUD,A,205,,,1,C GULF,7,9,W,0,0,0,0,,,,1,1,,1,58.900,-152.208,W,SUD,,,,SUDIS,288,0,98,,-9,,,,,
SUGARLOAF,923,SUGARLOAF,A,200,,,1,C GULF,7,9,W,1,1,1,1,1,1,1,,,,,58.888,-152.040,W,SUGARLOAF,,1,,SUGAR,242,0,94,,1*3,BOULDER BE,"N,NE",,,
SUTWIK,824,SUTWIK,A,245A,1,FROM,1,C GULF,7,8,W,0,1,1,1,,,,1,1,,1,56.518,-157.341,W,SUTWIK/A,SUTWIK,1,1,STWK1,863,0,136,,5,OFFSHORE S,S,,,
SUTWIK,824,SUTWIK/B,B,245B,2,TO,0,C GULF,7,8,W,0,1,1,1,,,,1,1,,1,56.533,-157.350,W,SUTWIK/B,SUTWIK,1,1,STWK1,863,0,136,,5,OFFSHORE S,S,,,
TAKLI,825,TAKLI,A,240,,,1,C GULF,7,8,W,0,0,1,1,,,,1,1,1,1,58.029,-154.521,W,TAKLI,,,,TAKLI,748,0,131,,6,OFFSHORE R,W,,,
TWOHEADED,924,TWOHEADED,A,219A,1,FROM,1,C GULF,7,9,W,1,1,1,1,,1,1,1,,,,56.903,-153.554,W,TWOHEADED/A,TWOHEADED,1,1,TWHD1,518,0,110,,4,SLAB-ROCK ,E,updated 3/12/14,,
TWOHEADED,924,TWOHEADED/B,B,219B,2,TO,0,C GULF,7,9,W,1,1,1,1,,1,1,1,,,,56.898,-153.569,W,TWOHEADED/B,TWOHEADED,1,1,TWHD1,518,0,110,,4,SLAB-ROCK ,E,updated 3/12/14,,
UGAIUSHAK,826,UGAIUSHAK,A,244,,,1,C GULF,7,8,W,0,1,1,1,,,,,,,,56.754,-156.854,W,UGAIUSHAK,,,,UGAIU,840,0,135,,5,OFFSHORE S,S,,,
UGAK,925,UGAK,A,216A,1,FROM,1,C GULF,7,9,W,0,0,1,1,,,,1,1,,1,57.393,-152.292,W,UGAK/A,UGAK,1,,UGAK1,495,0,107,,,,,,,
UGAK,925,UGAK/B,B,216B,2,TO,0,C GULF,7,9,W,0,0,1,1,,,,1,1,,1,57.365,-152.290,W,UGAK/B,UGAK,1,,UGAK1,495,0,107,,,,,,,
USHAGAT,926,USHAGAT/NW,A,202,,,1,C GULF,7,9,W,0,1,1,0,,,,1,,,,58.967,-152.317,W,USHAGAT/NW,USHAGAT,1,1,USHNW,265,1,95.1,2,4,SM OFFSHOR,,,,
USHAGAT,926,USHAGAT/SW,B,203A,1,TO,1,C GULF,7,9,W,1,1,1,1,,1,1,1,,,,58.912,-152.369,W,USHAGAT/SW/A,USHAGAT,1,1,USHSW,265,2,95.2,2,5,OFFSHORE S,W,,,
USHAGAT,926,USHAGAT/SW/B,C,203B,2,FROM,0,C GULF,7,9,W,1,1,1,1,,1,1,1,,,,58.905,-152.248,W,USHAGAT/SW/B,USHAGAT,1,1,USHSW,265,2,95.2,2,5,OFFSHORE S,W,,,
USHAGAT,926,USHAGAT/SW/C,D,203C,3,,0,C GULF,7,9,W,1,1,1,1,,1,1,1,,,,58.901,-152.344,W,USHAGAT/SW/C,USHAGAT,1,1,USHSW,265,2,95.2,2,5,OFFSHORE S,W,,,
USHAGAT/ROCKS SOUTH,927,USHAGAT/ROCKS SOUTH,A,204,,,1,C GULF,7,9,W,0,1,1,1,,,,1,1,,1,58.882,-152.318,W,USHAGAT/ROCKS SOUTH,,1,1,USHRK,265,3,97,,,,,deleted duplicate record,,
WEST AMATULI,928,WEST AMATULI,A,199,,,1,C GULF,7,9,W,0,0,0,0,,,,,,,,58.950,-152.017,W,WEST AMATULI,,,,WAMAT,219,0,93,,,,,,,
ADUGAK,601,ADUGAK,A,357,,,1,E ALEU,9,6,W,1,1,1,1,1,1,1,,,,,52.912,-169.175,W,ADUGAK,,1,,ADUGK,980,0,232,,5,OFFSHORE S,ALL,,,
AIKTAK,701,AIKTAK,A,308A,2,TO,0,E ALEU,9,7,W,0,0,1,1,,,,,,1,1,54.183,-164.853,W,AIKTAK,AIKTAK,1,1,AIKTK,166,0,188,,,,,,,
AIKTAK,701,AIKTAK/S,B,308B,1,FROM,1,E ALEU,9,7,W,0,0,1,1,,,,,,1,1,54.180,-164.829,W,AIKTAK/S,AIKTAK,,,,,,,,,,,,,
AKUN/AKUN BAY,602,AKUN/AKUN BAY,A,320,,,1,E ALEU,9,6,W,0,0,0,1,,,,,,,,54.214,-165.405,W,AKUN/AKUN BAY,,,,AKUNB,388,2,198.5,,6,OFFSHORE R,"""S,E""",,,
AKUN/AKUN HEAD,603,AKUN/AKUN HEAD,A,322,,,1,E ALEU,9,6,W,0,0,0,1,,,,,,,,54.297,-165.633,W,AKUN/AKUN HEAD,,,,AKUNH,388,4,200,,3,ROCKY,,,,
AKUN/BILLINGS HEAD,604,AKUN/BILLINGS HEAD,A,321A,1,FROM,1,E ALEU,9,6,W,1,1,1,1,1,1,1,,,,,54.294,-165.534,W,AKUN/BILLINGS HEAD/A,AKUN/BILLINGS HEAD,1,,BLNG1,388,3,199,,2,COBBLE BEA,N,,,
AKUN/BILLINGS HEAD,604,AKUN/BILLINGS HEAD/B,B,321B,2,TO,0,E ALEU,9,6,W,1,1,1,1,1,1,1,,,,,54.293,-165.529,W,AKUN/BILLINGS HEAD/B,AKUN/BILLINGS HEAD,1,,BLNG1,388,3,199,,2,COBBLE BEA,N,,,
AKUN/JACKASS POINT,605,AKUN/JACKASS POINT,A,319,,,1,E ALEU,9,6,W,0,0,0,1,,,,,,,,54.107,-165.560,W,AKUN/JACKASS POINT,,,,JACKA,388,1,198,,,ROCKY,,,,
AKUTAN/BATTERY POINT,606,AKUTAN/BATTERY POINT,A,327,,,1,E ALEU,9,6,W,0,0,0,0,,,,,,,,54.035,-165.892,W,AKUTAN/BATTERY POINT,,,,BATRY,425,4,204,,5,OFFSHORE S,S,,,
AKUTAN/CAPE MORGAN,607,AKUTAN/CAPE MORGAN,A,326A,1,FROM,1,E ALEU,9,6,W,1,1,1,1,1,1,1,,,,,54.056,-166.002,W,AKUTAN/CAPE MORGAN/A,AKUTAN/CAPE MORGAN,1,,MORG1,425,3,203,,"""1,2""","""SANDY BEA",SE,,,
AKUTAN/CAPE MORGAN,607,AKUTAN/CAPE MORGAN/B,B,326B,2,TO,0,E ALEU,9,6,W,1,1,1,1,1,1,1,,,,,54.047,-166.080,W,AKUTAN/CAPE MORGAN/B,AKUTAN/CAPE MORGAN,1,,MORG1,425,3,203,,"""1,2""","""SANDY BEA",SE,,,
AKUTAN/NORTH HEAD,608,AKUTAN/NORTH HEAD,A,324,,,1,E ALEU,9,6,W,0,0,0,0,,,,,,,,54.225,-165.938,W,AKUTAN/NORTH HEAD,,,,AKUTN,425,1,201,,,,,,,
AKUTAN/REEF-LAVA,609,AKUTAN/REEF-LAVA,A,325A,1,FROM,1,E ALEU,9,6,W,0,1,1,1,,,,1,1,1,1,54.135,-166.103,W,AKUTAN/REEF-LAVA/A,AKUTAN/REEF-LAVA,1,1,REEF1,425,2,202,,4,SLAB-ROCK ,NW,,,
AKUTAN/REEF-LAVA,609,AKUTAN/REEF-LAVA/B,B,325B,2,TO,0,E ALEU,9,6,W,0,1,1,1,,,,1,1,1,1,54.152,-166.092,W,AKUTAN/REEF-LAVA/B,AKUTAN/REEF-LAVA,1,1,REEF1,425,2,202,,4,SLAB-ROCK ,NW,,,
AMAK+ROCKS,610,AMAK+ROCKS,A,302A,1,FROM,1,E ALEU,9,6,W,0,1,1,1,,,,1,1,1,1,55.429,-163.172,W,AMAK+ROCKS/A,AMAK+ROCKS,1,1,AMAK1,55,0,184,,4,SLAB-ROCK ,"""W,NW""",,,
AMAK+ROCKS,610,AMAK+ROCKS/B,B,302B,2,,0,E ALEU,9,6,W,0,1,1,1,,,,1,1,1,1,55.436,-163.142,W,AMAK+ROCKS/B,AMAK+ROCKS,1,1,AMAK1,55,0,184,,4,SLAB-ROCK ,"""W,NW""",,,
AMAK+ROCKS,610,AMAK+ROCKS/C,C,302C,3,TO,0,E ALEU,9,6,W,0,1,1,1,,,,1,1,1,1,55.450,-163.160,W,AMAK+ROCKS/C,AMAK+ROCKS,1,1,AMAK1,55,0,184,,4,SLAB-ROCK ,"""W,NW""",,,
AVATANAK,611,AVATANAK/NE,A,593,,,1,E ALEU,9,6,W,0,0,0,0,,,,,,,,54.092,-165.270,W,AVATANAK/NE,AVATANAK,,,,,,,,,,,,,
AVATANAK,611,AVATANAK/S,B,591,,,1,E ALEU,9,6,W,0,0,0,0,,,,,,,,54.038,-165.299,W,AVATANAK/S,AVATANAK,,,,,,,,,,,,,
AVATANAK,611,AVATANAK/SE,C,592,,,1,E ALEU,9,6,W,0,0,0,0,,,,,,,,54.065,-165.228,W,AVATANAK/SE,AVATANAK,,,,,,,,,,,,,
BABY,612,BABY,A,328,,,1,E ALEU,9,6,W,0,0,0,0,,,,,,,,53.992,-166.067,W,BABY,,,,BABYI,462,0,205,,,,,,,
BASALT ROCK,613,BASALT ROCK,A,313,,,1,E ALEU,9,6,W,0,0,0,1,,,,,,,,54.108,-165.376,W,BASALT ROCK,,,,BASLT,277,0,193,,4,SLAB-ROCK ,SW,,,
BOGOSLOF/FIRE ISLAND,614,BOGOSLOF/FIRE ISLAND,A,344,,,1,E ALEU,9,6,W,1,1,1,1,1,1,1,,,,,53.928,-168.034,W,BOGOSLOF/FIRE ISLAND,,1,,BOGOS,684,0,220,,1,SANDY BEAC,"""S,E""",,,
EGG,617,EGG,A,330,1,FROM,1,E ALEU,9,6,W,0,0,1,1,,,,,,,,53.867,-166.042,W,EGG,EGG,,,EGGIS,536,0,207,,4,SLAB-ROCK ,E,,,
EGG,617,EGG/SE Tip,B,597,2,,0,E ALEU,9,6,W,0,0,1,1,,,,,,,,53.858,-166.042,W,EGG/SE Tip,EGG,,,,,,,,,,,,,
EGG,617,EGG/West,C,598,3,TO,0,E ALEU,9,6,W,0,0,1,1,,,,,,,,53.861,-166.062,W,EGG/West,EGG,,,,,,,,,,,,,
EMERALD,618,EMERALD,A,351,,,1,E ALEU,9,6,W,0,0,0,1,,,,1,1,,1,53.292,-167.858,W,EMERALD,,,,EMRLD,758,0,226,,4,SM ROCKY I,,,,
INNER SIGNAL,620,INNER SIGNAL,A,332,,,1,E ALEU,9,6,W,0,0,0,1,,,,,,,,53.788,-166.091,W,INNER SIGNAL,,,,ISIGN,610,0,209,,4,SLAB-ROCK ,,,,
KALIGAGAN,715,KALIGAGAN,A,309,,,1,E ALEU,9,7,W,0,0,0,1,,,,,,,,54.142,-164.908,W,KALIGAGAN,,,,KALIG,203,0,189,,3,ROCKY,,,,
OGCHUL,622,OGCHUL,A,354,,,1,E ALEU,9,6,W,1,1,1,1,1,1,1,,,,,52.995,-168.404,W,OGCHUL,,1,,OGCHU,869,0,229,,4,SLAB-ROCK ,SE,,"check this 93 CH include these with ""ushagat""",
OLD MAN ROCKS,623,OLD MAN ROCKS,A,329,,,1,E ALEU,9,6,W,0,0,1,1,,,,1,1,1,1,53.870,-166.082,W,OLD MAN ROCKS,,,1,OLDMN,499,0,206,,4,SLAB-ROCK ,W,,,
OUTER SIGNAL,625,OUTER SIGNAL,A,331,,,1,E ALEU,9,6,W,0,0,1,1,,,,,,1,1,53.804,-166.049,W,OUTER SIGNAL,,,,OSIGN,573,0,208,,4,SLAB-ROCK ,,,,
POLIVNOI ROCK,626,POLIVNOI ROCK,A,352,,,1,E ALEU,9,6,W,0,0,1,1,,,,1,,1,1,53.266,-167.967,W,POLIVNOI ROCK,,,,POLIV,795,0,227,,4,SM ROCKY I,,,,
ROCK,723,ROCK,A,293,,,1,E ALEU,9,7,W,0,0,1,1,,,,,,,,54.613,-163.632,W,ROCK,,,,ROCKI,959,0,176,,,,,,,
ROOTOK,627,ROOTOK/EAST,A,315,,,1,E ALEU,9,6,W,0,0,1,1,,,,,1,1,1,54.048,-165.492,W,ROOTOK/EAST,ROOTOK,,,RTOKE,314,1,194.1,2,6,OFFSHORE R,,,,
ROOTOK,627,ROOTOK/NORTH,B,316,,,1,E ALEU,9,6,W,0,0,1,1,,,,,1,1,1,54.065,-165.532,W,ROOTOK/NORTH,ROOTOK,,,RTOKN,314,2,194.2,2,5,OFFSHORE S,,,,
SAMALGA,629,SAMALGA,A,356,,,1,E ALEU,9,6,W,0,0,0,0,,,,,1,,1,52.767,-169.250,W,SAMALGA,,,,SAMAL,943,0,231,,3,ROCKY,,,,
SEA LION ROCK (AMAK),630,SEA LION ROCK (AMAK),A,303,,,1,E ALEU,9,6,W,1,1,1,1,1,1,1,,,,,55.464,-163.202,W,SEA LION ROCK (AMAK),,1,,SLR3A,92,0,185,,4,SLAB-ROCK ,S,,,
TANGINAK,640,TANGINAK,A,317,,,1,E ALEU,9,6,W,0,0,1,1,,,,1,1,1,1,54.200,-165.323,W,TANGINAK,,,,TANGI,351,0,197,,4,SLAB-ROCK ,SW,,,
THE PILLARS,641,THE PILLARS,A,353,,,1,E ALEU,9,6,W,0,0,1,1,,,,,,,,53.190,-168.240,W,THE PILLARS,,,,PLLRS,832,0,228,,4,SM ROCKY I,,,,
TIGALDA/ROCKS NE,732,TIGALDA/ROCKS NE,A,311A,1,FROM,1,E ALEU,9,7,W,0,0,1,1,,,,1,1,1,1,54.160,-164.983,W,TIGALDA/ROCKS NE/A,TIGALDA/ROCKS NE,1,1,TIGL1,240,1,190,,"""5,6""","""OFFSHORE ",,,,
TIGALDA/ROCKS NE,732,TIGALDA/ROCKS NE/B,B,311B,2,TO,0,E ALEU,9,7,W,0,0,1,1,,,,1,1,1,1,54.152,-164.953,W,TIGALDA/ROCKS NE/B,TIGALDA/ROCKS NE,1,1,TIGL1,240,1,190,,"""5,6""","""OFFSHORE ",,,,
TIGALDA/SOUTH SIDE,733,TIGALDA/SOUTH SIDE,A,312,,,1,E ALEU,9,7,W,0,0,1,1,,,,,,,,54.063,-165.090,W,TIGALDA/SOUTH SIDE,,,1,TIGSO,240,2,191,,5,OFFSHORE S,W,,,
UGAMAK,735,UGAMAK/NORTH,A,305A,1,FROM,1,E ALEU,9,7,W,1,1,1,1,1,1,1,,,,,54.226,-164.776,W,UGAMAK/NORTH/A,UGAMAK,1,,UKMKN,129,1,186.2,2,"""2,4""","""COBBLE BE","""S,N""",,,
UGAMAK,735,UGAMAK/NORTH/B,B,305B,2,TO,0,E ALEU,9,7,W,1,1,1,1,1,1,1,,,,,54.225,-164.793,W,UGAMAK/NORTH/B,UGAMAK,1,,UKMKN,129,1,186.2,2,"""2,4""","""COBBLE BE","""S,N""",,,
UGAMAK,735,UGAMAK/ROUND,C,307,,,1,E ALEU,9,7,W,1,1,1,1,1,1,1,,,,,54.201,-164.778,W,UGAMAK/ROUND,UGAMAK,1,,ROUND,129,3,186.6,2,4,SLAB-ROCK ,SE,,,
UGAMAK,735,UGAMAK/SW,D,603,,,1,E ALEU,9,7,W,1,1,1,1,1,,1,,,,,54.189,-164.867,W,UGAMAK/SW,UGAMAK,1,,,,,,,,,,,,
UGAMAK,735,UGAMAK/UGAMAK BAY,E,306A,1,FROM,1,E ALEU,9,7,W,1,1,1,1,1,1,1,,,,,54.209,-164.774,W,UGAMAK/UGAMAK BAY/A,UGAMAK,1,,UGAM1,129,2,186.4,2,"""2,4""","""COBBLE BE","""S,N""",,,
UGAMAK,735,UGAMAK/UGAMAK BAY/B,F,306B,2,TO,0,E ALEU,9,7,W,1,1,1,1,1,1,1,,,,,54.214,-164.786,W,UGAMAK/UGAMAK BAY/B,UGAMAK,1,,UGAM1,129,2,186.4,2,"""2,4""","""COBBLE BE","""S,N""",,,
UMNAK/AGULIUK POINT,644,UMNAK/AGULIUK POINT,A,349,,,1,E ALEU,9,6,W,0,0,0,0,,,,,,,,53.483,-168.333,W,UMNAK/AGULIUK POINT,,,,AGULI,721,4,224,,(4),(SLAB-ROCK,(W),,,
UMNAK/CAPE ASLIK,645,UMNAK/CAPE ASLIK,A,350,,,1,E ALEU,9,6,W,0,1,1,1,,,,1,1,,1,53.417,-168.408,W,UMNAK/CAPE ASLIK,,,,ASLIK,721,5,225,,5,OFFSHORE S,W,,,
UMNAK/CAPE CHAGAK,646,UMNAK/CAPE CHAGAK,A,348,,,1,E ALEU,9,6,W,0,0,0,0,,,,,,,,53.533,-168.233,W,UMNAK/CAPE CHAGAK,,,,CHAGK,721,3,223,,(4),(SLAB-ROCK,(W),,,
UMNAK/CAPE IDAK,647,UMNAK/CAPE IDAK,A,346,,,1,E ALEU,9,6,W,0,0,0,0,,,,,,,,53.517,-167.800,W,UMNAK/CAPE IDAK,,,,CIDAK,721,1,221,,,,,,,
UMNAK/CAPE UDAK,648,UMNAK/CAPE UDAK,A,604,,,1,E ALEU,9,6,W,0,0,0,0,,,,,,,,52.903,-168.775,W,UMNAK/CAPE UDAK,,,,,,,,,,,,,,
UMNAK/REINDEER POINT,649,UMNAK/REINDEER POINT,A,347,,,1,E ALEU,9,6,W,0,0,0,0,,,,,,,,53.550,-168.150,W,UMNAK/REINDEER POINT,,,,REIND,721,2,222,,(5),(OFFSHORE ,(W),,,
UNALASKA/BISHOP POINT,650,UNALASKA/BISHOP POINT,A,337A,1,FROM,1,E ALEU,9,6,W,0,0,1,1,,,,,1,1,1,53.973,-166.958,W,UNALASKA/BISHOP POINT/A,UNALASKA/BISHOP POINT,1,1,BISHP,647,4,213,,4,SLAB-ROCK ,"""W,N""",,,
UNALASKA/BISHOP POINT,650,UNALASKA/BISHOP POINT/B,B,337B,2,TO,0,E ALEU,9,6,W,0,0,1,1,,,,,1,1,1,53.973,-166.956,W,UNALASKA/BISHOP POINT/B,UNALASKA/BISHOP POINT,1,1,BISHP,647,4,213,,4,SLAB-ROCK ,"""W,N""",,,
UNALASKA/BRUNDAGE HEAD,651,UNALASKA/BRUNDAGE HEAD,A,557,,,1,E ALEU,9,6,W,0,0,0,0,,,,,,,,53.933,-166.202,W,UNALASKA/BRUNDAGE HEAD,,,,,647,11,,,,,,SITE FOUND 11 MAY 2006,,
UNALASKA/CAPE IZIGAN,652,UNALASKA/CAPE IZIGAN,A,343,,,1,E ALEU,9,6,W,1,0,1,1,,1,1,,1,1,,53.228,-167.654,W,UNALASKA/CAPE IZIGAN,,1,1,IZIGN,647,10,219,,5,OFFSHORE S,SE,,,
UNALASKA/CAPE SEDANKA,653,UNALASKA/CAPE SEDANKA,A,334,,,1,E ALEU,9,6,W,0,0,1,1,,,,1,1,1,1,53.842,-166.083,W,UNALASKA/CAPE SEDANKA,,,,SEDNK,647,1,210,,,,,,,
UNALASKA/CAPE STARICHKOF,654,UNALASKA/CAPE STARICHKOF,A,340,,,1,E ALEU,9,6,W,0,0,0,1,,,,,1,,1,53.692,-167.073,W,UNALASKA/CAPE STARICHKOF,,,,STARI,647,7,216,,,,,,,
UNALASKA/CAPE WISLOW,655,UNALASKA/CAPE WISLOW,A,336,,,1,E ALEU,9,6,W,0,0,0,1,,,,,,,,54.017,-166.750,W,UNALASKA/CAPE WISLOW,,,,WISLO,647,3,212,,,,,,,
UNALASKA/KOVRIZHKA,656,UNALASKA/KOVRIZHKA,A,338,,,1,E ALEU,9,6,W,0,0,0,1,,,,,,,,53.847,-167.167,W,UNALASKA/KOVRIZHKA,,,,KOVRZ,647,5,214,,,,,,,
UNALASKA/MAKUSHIN BAY,657,UNALASKA/MAKUSHIN BAY,A,339,,,1,E ALEU,9,6,W,0,0,1,1,,,,,,,,53.714,-167.016,W,UNALASKA/MAKUSHIN BAY,UNALASKA/MAKUSHIN BAY,,,MAKUS,647,6,215,,6,OFFSHORE R,"""W,N""",,,
UNALASKA/MAKUSHIN BAY,657,UNALASKA/W OF MAKUSHIN BAY,B,607,,,1,E ALEU,9,6,W,0,0,1,1,,,,,,,,53.782,-167.072,W,UNALASKA/W OF MAKUSHIN BAY,UNALASKA/MAKUSHIN BAY,,,,,,,,,,,,,
UNALASKA/POINT KADIN,658,UNALASKA/POINT KADIN,A,623,,,1,E ALEU,9,6,W,0,0,0,0,,,,,,,,53.926,-167.078,W,UNALASKA/POINT KADIN,,,,,647,11,,,,,,,,
UNALASKA/PRIEST ROCK,659,UNALASKA/PRIEST ROCK,A,335,,,1,E ALEU,9,6,W,0,0,0,1,,,,,,,,54.008,-166.377,W,UNALASKA/PRIEST ROCK,,,,PRSTR,647,2,211,,6,OFFSHORE R,,,,
UNALASKA/SPRAY CAPE,660,UNALASKA/SPRAY CAPE,A,341,,,1,E ALEU,9,6,W,0,0,1,1,,,,,,1,1,53.617,-167.158,W,UNALASKA/SPRAY CAPE,,,,SPRAY,647,8,217,,3,ROCKY,,,,
UNALASKA/WHALEBONE CAPE,661,UNALASKA/WHALEBONE CAPE,A,342,,,1,E ALEU,9,6,W,0,0,0,1,,,,,,,,53.483,-166.667,W,UNALASKA/WHALEBONE CAPE,,,,WHLBN,647,9,218,,,,,,,
UNIMAK/CAPE LAZAREF,739,UNIMAK/CAPE LAZAREF,A,295,,,1,E ALEU,9,7,W,0,0,0,1,,,,,,,,54.608,-163.588,W,UNIMAK/CAPE LAZAREF,,,,LAZRF,18,1,177,,,,,,,
UNIMAK/CAPE LUTKE,740,UNIMAK/CAPE LUTKE,A,296,,,1,E ALEU,9,7,W,0,0,0,1,,,,,,,,54.473,-164.345,W,UNIMAK/CAPE LUTKE,,,,LUTKE,18,2,178,,,,,,,
UNIMAK/CAPE SARICHEF,662,UNIMAK/CAPE SARICHEF,A,299,,,1,E ALEU,9,6,W,0,0,1,1,,,,,1,1,1,54.572,-164.947,W,UNIMAK/CAPE SARICHEF,UNIMAK/CAPE SARICHEF,1,1,SARCH,18,5,181,,4,SLAB-ROCK ,W,,,
UNIMAK/CAPE SARICHEF,662,UNIMAK/CAPE SARICHEF N,B,605,,,1,E ALEU,9,6,W,0,0,1,1,,,,,1,1,1,54.594,-164.933,W,UNIMAK/CAPE SARICHEF N,UNIMAK/CAPE SARICHEF,1,,,,,,,,,,,,
UNIMAK/CAVE POINT,663,UNIMAK/CAVE POINT,A,300,,,1,E ALEU,9,6,W,0,0,0,0,,,,,,,,54.785,-164.623,W,UNIMAK/CAVE POINT,,,,CAVEP,18,6,182,,,,,,,
UNIMAK/OKSENOF POINT,664,UNIMAK/OKSENOF POINT,A,301,,,1,E ALEU,9,6,W,0,0,0,1,,,,,1,1,1,54.888,-164.558,W,UNIMAK/OKSENOF POINT,UNIMAK/OKSENOF POINT,1,,OKSEN,18,7,183,,"""4,3""","""SLAB-ROCK",NE,,,
UNIMAK/OKSENOF POINT,664,UNIMAK/S OF OKSENOF POINT,B,606,,,1,E ALEU,9,6,W,0,0,0,1,,,,,1,1,1,54.869,-164.561,W,UNIMAK/S OF OKSENOF POINT,UNIMAK/OKSENOF POINT,1,,,,,,,,,,extend 15 CH to this site since we add?,,
UNIMAK/SCOTCH CAP,665,UNIMAK/SCOTCH CAP,A,297,,,1,E ALEU,9,6,W,0,0,0,1,,,,,,,,54.397,-164.763,W,UNIMAK/SCOTCH CAP,,,,SCCAP,18,3,179,,,ROCKY,,,,
UNIMAK/SENNETT POINT,666,UNIMAK/SENNETT POINT,A,298,,,1,E ALEU,9,6,W,0,0,0,1,,,,,,,,54.483,-164.920,W,UNIMAK/SENNETT POINT,,,,SENNT,18,4,180,,,,,,,
UNIMAK/SENNETT POINT,666,UNIMAK/SENNETT POINT N,B,298B,,,1,E ALEU,9,6,W,0,0,0,1,,,,,,,,54.513,-164.916,W,UNIMAK/SENNETT POINT,,,,SENNT,18,4,180,,,,,ADDED 10/10/2018 FROM 2018 ASSLAP NOTES,,
VSEVIDOF,667,VSEVIDOF,A,355,,,1,E ALEU,9,6,W,0,1,1,1,,,,,,,,52.979,-168.445,W,VSEVIDOF,,,1,VSEVI,906,0,230,,5,OFFSHORE S,S,,,
CAPE NEWENHAM,615,CAPE NEWENHAM,A,486,,,1,E ALEU (BERING),9,6,W,0,,,0,,,,1,1,1,1,58.650,-162.175,W,CAPE NEWENHAM,,,,,643,0,407,,,,,,,
HALL,619,HALL,A,487,,,1,E ALEU (BERING),9,6,W,0,,,0,,,,1,,1,1,60.617,-173.000,W,HALL,,,,,786,0,408,,,,,,,
OTTER ISLAND,624,OTTER ISLAND,A,588,,,1,E ALEU (BERING),9,6,W,0,0,0,0,,,,,,,,57.049,-170.396,W,OTTER ISLAND,,,,,,,,,,,,,,
ROUND (WALRUS IS),628,ROUND (WALRUS IS),A,485,,,1,E ALEU (BERING),9,6,W,0,,,0,,,,1,1,1,1,58.600,-159.967,W,ROUND (WALRUS IS),,,,,500,0,406,,,,,,,
ST. GEORGE/DALNOI POINT,631,ST. GEORGE/DALNOI POINT,A,480,,,1,E ALEU (BERING),9,6,W,0,0,0,0,,,,1,,1,1,56.600,-169.767,W,ST. GEORGE/DALNOI POINT,,1,,,71,2,402,,,,,,,
ST. GEORGE/KITOSILOX,632,ST. GEORGE/KITOSILOX,A,610,,,1,E ALEU (BERING),9,6,W,0,,,0,,,,,1,,1,56.598,-169.476,W,ST. GEORGE/KITOSILOX,,,,,71,3,,,,,,,,
ST. GEORGE/SOUTH ROOKERY,633,ST. GEORGE/SOUTH ROOKERY,A,479,,,1,E ALEU (BERING),9,6,W,0,,,0,,,,1,1,1,1,56.558,-169.667,W,ST. GEORGE/SOUTH ROOKERY,,,,,71,1,401,,,,,,,
ST. LAWRENCE/S. PUNUK,634,ST. LAWRENCE/S. PUNUK,A,489,,,1,E ALEU (BERING),9,6,W,0,,,0,,,,1,,1,1,63.067,-168.850,W,ST. LAWRENCE/S. PUNUK,,,,,929,1,409,,,,,,,
ST. LAWRENCE/SIVUONOK,635,ST. LAWRENCE/SIVUONOK,A,609,,,1,E ALEU (BERING),9,6,W,0,,,0,,,,,,1,1,63.677,-171.590,W,ST. LAWRENCE/SIVUONOK,,,,,929,3,,,,,,,,
ST. LAWRENCE/SW CAPE,636,ST. LAWRENCE/SW CAPE,A,490,,,1,E ALEU (BERING),9,6,W,0,,,0,,,,1,,1,1,63.300,-171.433,W,ST. LAWRENCE/SW CAPE,,,,,929,2,410,,,,,,,
ST. PAUL/NE POINT,637,ST. PAUL/NE POINT,A,483,,,1,E ALEU (BERING),9,6,W,0,,,0,,,,1,,,1,57.250,-170.108,W,ST. PAUL/NE POINT,,,,,214,2,404,,,,,,,
ST. PAUL/SEA LION ROCK,638,ST. PAUL/SEA LION ROCK,A,482,,,1,E ALEU (BERING),9,6,W,0,0,0,0,,,,1,1,,1,57.100,-170.292,W,ST. PAUL/SEA LION ROCK,,1,,,214,1,403,,,,,,,
SUMMIT,639,SUMMIT,A,618,,,1,E ALEU (BERING),9,6,W,0,,,,,,,,,,,58.826,-160.184,W,SUMMIT,,,,,,,,,,,,,,
THE TWINS,642,THE TWINS,A,619A,,,1,E ALEU (BERING),9,6,W,0,,,,,,,,,,,58.59667,-160.3075,W,THE TWINS/A,THE TWINS,,,,,,,,,,,,,
THE TWINS,642,THE TWINS/B,B,619B,,,1,E ALEU (BERING),9,6,W,0,,,,,,,,,,,58.59,-160.317,W,THE TWINS/B,THE TWINS,,,,,,,,,,,,,
WALRUS,668,WALRUS,A,484,,,1,E ALEU (BERING),9,6,W,1,0,0,0,1,1,1,,,,,57.183,-169.933,W,WALRUS,,1,,,357,0,405,,,,,,,
AIALIK CAPE,1001,AIALIK CAPE,A,184,,,1,E GULF,6,10,W,0,0,1,1,,,,,,,,59.705,-149.524,W,AIALIK CAPE,AIALIK CAPE,1,,AIALK,779,0,78,,6,OFFSHORE R,S,,,
AIALIK CAPE,1001,NO NAME,B,563A,1,FROM,1,E GULF,6,10,W,0,0,1,1,,,,,,,,59.720,-149.511,W,NO NAME/A,AIALIK CAPE,1,,,,,,,,,,,,
AIALIK CAPE,1001,NO NAME/B,C,563B,2,TO,0,E GULF,6,10,W,0,0,1,0,,,,,,,,59.717,-149.507,W,NO NAME/B,AIALIK CAPE,1,,,,,,,,,,,,
CAPE FAIRFIELD,1002,CAPE FAIRFIELD,A,181,,,1,E GULF,6,10,W,0,0,1,1,,,,,,,,59.923,-148.837,W,CAPE FAIRFIELD,,1,,FAIRF,665,0,75,,6,OFFSHORE R,S,,,
CAPE HINCHINBROOK,1003,CAPE HINCHINBROOK,A,165,,,1,E GULF,6,10,W,0,0,1,1,,,,,1,,1,60.233,-146.642,W,CAPE HINCHINBROOK,,1,,HINCH,133,0,61,,,,,,,
CAPE JUNKEN,1004,CAPE JUNKEN,A,180,,,1,E GULF,6,10,W,0,0,0,1,,,,,,,,59.913,-148.643,W,CAPE JUNKEN,,1,,JUNKN,627,0,74,,,,,,,
CAPE PUGET,1005,CAPE PUGET,A,179,,,1,E GULF,6,10,W,0,0,1,1,,,,,,,,59.942,-148.450,W,CAPE PUGET,,1,,PUGET,589,0,73,,,,,,,
CAPE RESURRECTION,1006,CAPE RESURRECTION,A,182A,1,FROM,1,E GULF,6,10,W,0,0,0,0,,,,,,,,59.861,-149.282,W,CAPE RESURRECTION/A,CAPE RESURRECTION,1,,RESUR,703,0,76,,,,,updated 3/12/14,,
CAPE RESURRECTION,1006,CAPE RESURRECTION/B,B,182B,2,,0,E GULF,6,10,W,0,0,0,0,,,,,,,,59.880,-149.292,W,CAPE RESURRECTION/B,CAPE RESURRECTION,1,,RESUR,703,0,76,,,,,updated 3/12/14,,
CAPE RESURRECTION,1006,CAPE RESURRECTION/C,C,182C,3,TO,0,E GULF,6,10,W,0,0,0,0,,,,,,,,59.891,-149.302,W,CAPE RESURRECTION/C,CAPE RESURRECTION,1,,RESUR,703,0,76,,,,,updated 3/12/14,,
CAPE ST. ELIAS,1007,CAPE ST. ELIAS,A,163A,,,1,E GULF,6,10,W,0,1,1,1,,,,1,1,1,1,59.789,-144.603,W,CAPE ST. ELIAS/A,CAPE ST. ELIAS,1,,ELIAS,57,0,59,,4,SLAB-ROCK ,"""S, SW""",,,
CAPE ST. ELIAS,1007,CAPE ST. ELIAS/B,B,163B,,,1,E GULF,6,10,W,0,1,1,1,,,,1,1,1,1,59.762,-144.591,W,CAPE ST. ELIAS/B,CAPE ST. ELIAS,1,,ELIAS,57,0,59,,4,,,ADDED 9/25/2015,,
CHISWELL ISLANDS,1008,CHISWELL ISLANDS,A,185,,,1,E GULF,6,10,W,1,1,1,1,,1,1,1,,,,59.602,-149.571,W,CHISWELL ISLANDS,CHISWELL ISLANDS,1,,CHISW,817,0,79,,4,SLAB-ROCK ,SW,,,
CHISWELL ISLANDS,1008,CHISWELL ISLANDS/B,C,185B,,,1,E GULF,6,10,W,1,1,1,1,,1,1,1,,,,59.615,-149.600,W,CHISWELL ISLANDS,CHISWELL ISLANDS,1,,CHISW,817,0,79,,4,SLAB-ROCK ,SW,,,
CHISWELL ISLANDS,1008,NATOA (GROTTO),B,562,,,1,E GULF,6,10,W,0,0,0,0,,,,,,,,59.632,-149.600,W,NATOA (GROTTO),CHISWELL ISLANDS,1,,,,,,,,,,,,
DANGER,1009,DANGER,A,176,,,1,E GULF,6,10,W,0,0,0,0,,,,,,,,59.918,-148.097,W,DANGER,,1,,DANGR,475,2,70.2,2,6,OFFSHORE R,,,,
DUTCH GROUP,1010,DUTCH GROUP,A,587,,,1,E GULF,6,10,W,0,0,0,0,,,,,1,,1,60.766,-147.773,W,DUTCH GROUP,,,,,,,,,,,,,,
FOX,1037,FOX,A,622,,,0,E GULF,6,10,W,0,0,0,0,,,,,,,,60.164,-144.604,W,,,,,,,,,,,,,NEW SITE IN 2017,,
GLACIER,1014,GLACIER,A,169,,,1,E GULF,6,10,W,0,1,1,1,,,,,1,1,1,60.853,-147.153,W,GLACIER,,1,,GLACR,285,0,65,,4,SLAB-ROCK ,S,,,
GRANITE CAPE,1016,GRANITE CAPE,A,186,,,1,E GULF,6,10,W,0,0,0,1,,,,,,,,59.608,-149.760,W,GRANITE CAPE,,1,,GRNIT,855,0,80,,,,,,,
HOOK POINT,1017,HOOK POINT,A,164,,,1,E GULF,6,10,W,0,0,0,1,,,,1,1,,1,60.331,-146.260,W,HOOK POINT,,1,,HOOKP,95,0,60,,6,OFFSHORE R,SW,,,
MIDDLETON,1018,MIDDLETON,A,168,,,1,E GULF,6,10,W,0,0,0,0,,,,1,,1,1,59.472,-146.313,W,MIDDLETON,,1,,MDLTN,247,0,64,,,,,,,
PERRY,1024,PERRY,A,172,,,1,E GULF,6,10,W,0,0,0,1,,,,1,1,1,1,60.735,-147.905,W,PERRY,,1,,PERRY,399,0,68,,,,,,,
PILOT ROCK,1038,PILOT ROCK,A,623,,,0,E GULF,6,10,W,0,0,0,0,,,,,,,,59.742,-149.471,W,,,,,,,,,,,,,"NEW SITE IN 2017, NEAR NO NAME",,
PLEIADES,1025,PLEIADES,A,173,,,1,E GULF,6,10,W,0,0,0,0,,,,,,,,60.242,-148.008,W,PLEIADES,,1,,PLEAD,437,0,69,,,,,,,
POINT ELEANOR,1026,POINT ELEANOR,A,170,,,1,E GULF,6,10,W,0,0,0,0,,,,1,,1,1,60.583,-147.567,W,POINT ELEANOR,,1,,ELNOR,323,0,66,,5,OFFSHORE S,NE,,,
POINT ELRINGTON,1027,POINT ELRINGTON,A,177,,,1,E GULF,6,10,W,0,1,1,1,,,,1,1,1,1,59.934,-148.248,W,POINT ELRINGTON,,1,,ELRNG,513,0,71,,"""5,6,4""","""OFFSHORE ","""S,W""",,,
POINT LaTOUCHE,1028,POINT LaTOUCHE,A,175,,,1,E GULF,6,10,W,0,0,0,0,,,,,,,,59.940,-148.050,W,POINT LaTOUCHE,,1,,LATOU,475,1,70.1,2,6,OFFSHORE R,,,,
PROCESSION ROCKS,1029,PROCESSION ROCKS,A,178,,,1,E GULF,6,10,W,0,0,0,1,,,,,,,,60.006,-148.290,W,PROCESSION ROCKS,,1,,PRCSN,551,0,72,,0,0,,,,
RABBIT,1030,RABBIT,A,189,,,1,E GULF,6,10,W,0,0,0,1,,,,,,,,59.363,-150.380,W,RABBIT,,1,,RABIT,969,0,83,,,,,,,
RUGGED,1031,RUGGED,A,183A,1,FROM,1,E GULF,6,10,W,0,1,1,1,,,,,1,1,1,59.833,-149.385,W,RUGGED/A,RUGGED,1,,RGGD1,741,0,77,,3*4,BOULDER BE,ALL,,,
RUGGED,1031,RUGGED/B,B,183B,2,TO,0,E GULF,6,10,W,0,1,1,1,,,,,1,1,1,59.850,-149.412,W,RUGGED/B,RUGGED,1,,RGGD1,741,0,77,,3*4,BOULDER BE,ALL,,,
SEAL ROCKS,1032,SEAL ROCKS,A,166,,,1,E GULF,6,10,W,1,1,1,1,1,1,1,,,,,60.163,-146.836,W,SEAL ROCKS,,1,,SROCK,171,0,62,,"""2,4""","""COBBLE BE",ALL,,,
SEAL ROCKS (KENAI),1033,SEAL ROCKS (KENAI),A,187,,,1,E GULF,6,10,W,0,1,1,1,,,,1,1,1,1,59.520,-149.625,W,SEAL ROCKS (KENAI),,1,,SRCHS,893,0,81,,4,SLAB-ROCK ,SW,,,
STEEP POINT,1034,RAGGED/HOOF POINT,A,564,,,1,E GULF,6,10,W,0,0,1,1,,,,,,,,59.417,-150.297,W,RAGGED/HOOF POINT,STEEP POINT,1,,,,,,,,,,,,
STEEP POINT,1034,STEEP POINT,B,188,,,1,E GULF,6,10,W,0,0,0,1,,,,,1,,1,59.484,-150.257,W,STEEP POINT,STEEP POINT,1,,STEPP,931,0,82,,4*6,SLAB-ROCK ,SE,,,
THE NEEDLE,1035,THE NEEDLE,A,171,,,1,E GULF,6,10,W,0,1,1,1,,,,1,1,1,1,60.110,-147.602,W,THE NEEDLE,,1,,NEEDL,361,0,67,,4,SLAB-ROCK ,ALL,,,
WOODED (FISH),1036,WOODED (FISH),A,167A,1,FROM,1,E GULF,6,10,W,1,1,1,1,1,1,1,,,,,59.882,-147.346,W,WOODED (FISH)/A,WOODED (FISH),1,,FISHI,209,0,63,,3*6,BOULDER BE,"NE,SE",,,
WOODED (FISH),1036,WOODED (FISH)/B,B,167B,2,TO,0,E GULF,6,10,W,1,1,1,1,1,1,1,,,,,59.876,-147.350,W,WOODED (FISH)/B,WOODED (FISH),1,,FISHI,209,0,63,,3*6,BOULDER BE,"NE,SE",,,
AKWE,1101,AKWE,A,569,,,1,SE AK,5,11,E,0,0,0,0,,,,,,1,1,59.277,-139.030,W,AKWE,,1,,,12,0,,,,,,,,
ALSEK,1102,ALSEK,A,570,,,1,SE AK,5,11,E,0,0,0,0,,,,,,1,1,59.129,-138.626,W,ALSEK,,1,,,6,0,,,,,,RT added 4/4/06,,
BENJAMIN,1103,BENJAMIN,A,156,,,1,SE AK,5,11,E,0,0,0,0,,,,1,,1,1,58.562,-134.913,W,BENJAMIN,,1,,,876,0,52,,,,,,,
BERNERS BAY,1104,BERNERS BAY,A,611,,,1,SE AK,5,11,E,0,0,0,0,,,,,,,,58.753991,-135.017931,W,BERNERS BAY,,,,,,,,,,,,,,
BIALI ROCK,1105,BIALI ROCK,A,120,,,1,SE AK,5,11,E,1,0,0,0,,1,,1,,1,1,56.712,-135.342,W,BIALI ROCK,,1,,,298,0,18,,,,,,,
BLACK ROCK,1106,BLACK ROCK,A,561,,,1,SE AK,5,11,E,0,0,0,0,,,,,,,,58.325,-135.613,W,BLACK ROCK,,,,,0,0,,,,,,,,
CAPE ADDINGTON,1107,CAPE ADDINGTON,A,110,,,1,SE AK,5,11,E,0,0,0,0,,,,1,,1,,55.438,-133.822,W,CAPE ADDINGTON,,1,,,128,0,8,,,,,,,
CAPE BARTOLOME,1108,CAPE BARTOLOME,A,109,,,1,SE AK,5,11,E,0,0,0,0,,,,,,,,55.230,-133.617,W,CAPE BARTOLOME,,1,,,111,0,7,,,,,,,
CAPE BINGHAM,1109,CAPE BINGHAM,A,144A,,,1,SE AK,5,11,E,0,0,0,0,,,,,,,,58.093,-136.542,W,CAPE BINGHAM,,1,,,672,0,40,,,,,,,
CAPE BINGHAM,1109,CAPE BINGHAM,A,144B,,,1,SE AK,5,11,E,0,0,0,0,,,,,,,,58.0861,-136.5625,W,CAPE BINGHAM,,1,,,672,0,40,,,,,,,
CAPE CROSS,1110,CAPE CROSS,A,143,,,1,SE AK,5,11,E,0,1,0,0,,,,1,,,,57.912,-136.568,W,CAPE CROSS,,1,,,655,0,39,,,,,,,
CAPE FAIRWEATHER,1111,CAPE FAIRWEATHER,A,161,,,1,SE AK,5,11,E,0,1,0,0,,,,1,,,,58.792,-137.938,W,CAPE FAIRWEATHER,,1,,,961,0,57,,,,,,,
CAPE OMMANEY,1112,CAPE OMMANEY,A,117,,,1,SE AK,5,11,E,0,0,0,0,,,,1,,1,1,56.172,-134.710,W,CAPE OMMANEY,CAPE OMMANEY,1,,,247,0,15,,,,,,,
CAPE OMMANEY,1112,CAPE OMMANEY/S,B,568,,,1,SE AK,5,11,E,0,0,0,0,,,,1,,1,1,56.162,-134.670,W,CAPE OMMANEY/S,CAPE OMMANEY,1,,,,,,,,,,,,
CASE (TLINGIT) POINT,1113,CASE (TLINGIT) POINT,A,150,,,1,SE AK,5,11,E,0,0,0,0,,,,,,,,58.753,-136.248,W,CASE (TLINGIT) POINT,,1,,,774,0,46,3,,,,deleted duplicate (position from dup),,
CIRCLE POINT,1114,CIRCLE POINT,A,154,,,1,SE AK,5,11,E,0,0,0,0,,,,,,,,58.125,-134.080,W,CIRCLE POINT,,1,,,842,0,50,,,,,,,
CORONATION,1115,CORONATION,A,112,,,1,SE AK,5,11,E,0,1,0,0,,,,1,,,,55.928,-134.283,W,CORONATION,,1,,,162,0,10,,,,,,,
DOROTHY,1116,DOROTHY,A,153,,,1,SE AK,5,11,E,0,0,0,0,,,,,,,,58.237,-134.057,W,DOROTHY,,1,,,825,0,49,,,,,,,
EASTERLY,1117,EASTERLY,A,115,,,1,SE AK,5,11,E,0,0,0,0,,,,,,,,55.895,-132.088,W,EASTERLY,,1,,,213,0,13,,,,,,,
ELDRED ROCK,1118,ELDRED ROCK,A,158,,,1,SE AK,5,11,E,0,0,0,0,,,,,,,,58.972,-135.222,W,ELDRED ROCK,,1,,,910,0,54,,,,,,,
EMMONS,1119,EMMONS,A,141,,,1,SE AK,5,11,E,0,0,0,0,,,,,,,,57.607,-135.523,W,EMMONS,,1,,,621,0,37,,,,,,,
ETOLIN,1120,ETOLIN,A,116,,,1,SE AK,5,11,E,0,0,0,0,,,,,,,,56.337,-132.532,W,ETOLIN,,1,,,230,0,14,,,,,,,
FALSE POINT PYBUS,1121,FALSE POINT PYBUS,A,135,,,1,SE AK,5,11,E,0,0,0,0,,,,,,,,57.367,-133.860,W,FALSE POINT PYBUS,,1,,,519,0,31,,,,,,,
FORRESTER,1122,FORRESTER/C HORN RK,A,103,,,1,SE AK,5,11,E,1,1,0,0,1,1,,,,,,54.847,-133.550,W,FORRESTER/C HORN RK,FORRESTER,1,,,60,3,4.3,2,,,,,,
FORRESTER,1122,FORRESTER/EAST RK,B,106,,,1,SE AK,5,11,E,1,1,0,0,1,1,,,,,,54.8613,-133.5263,W,FORRESTER/EAST RK,FORRESTER,1,,,60,6,,,,,,,,
FORRESTER,1122,FORRESTER/FORRESTER ISLAND,C,101,,,1,SE AK,5,11,E,1,1,0,0,1,1,,,,,,54.838,-133.527,W,FORRESTER/FORRESTER ISLAND,FORRESTER,1,,,60,1,4.1,2,,,,,,
FORRESTER,1122,FORRESTER/LOWRIE,D,104A,1,FROM,1,SE AK,5,11,E,1,1,0,0,1,1,,,,,,54.862,-133.537,W,FORRESTER/LOWRIE/A,FORRESTER,1,,,60,4,4.4,2,,,,,,
FORRESTER,1122,FORRESTER/LOWRIE/B,E,104B,2,TO,0,SE AK,5,11,E,1,1,0,0,1,1,,,,,,54.860,-133.552,W,FORRESTER/LOWRIE/B,FORRESTER,1,,,60,4,4.4,2,,,,,,
FORRESTER,1122,FORRESTER/LOWRIE/C,F,104C,3,,0,SE AK,5,11,E,1,1,0,0,1,1,,,,,,54.854,-133.543,W,FORRESTER/LOWRIE/C,FORRESTER,1,,,60,4,4.4,2,,,,,,
FORRESTER,1122,FORRESTER/NORTH RK,G,105,,,1,SE AK,5,11,E,1,1,0,0,1,1,,,,,,54.873,-133.562,W,FORRESTER/NORTH RK,FORRESTER,1,,,60,5,4.5,2,,,,,,
FORRESTER,1122,FORRESTER/SEA LION RK,H,102,,,1,SE AK,5,11,E,1,1,0,0,1,1,,,,,,54.843,-133.535,W,FORRESTER/SEA LION RK,FORRESTER,1,,,60,2,4.2,2,,,,,,
FUNTER BAY,1123,FUNTER BAY,A,612,,,1,SE AK,5,11,E,0,0,0,0,,,,,,,,58.215493,-134.913371,W,FUNTER BAY,,,,,,,,,,,,,,
GAFF ROCK,1124,GAFF ROCK,A,560,,,1,SE AK,5,11,E,0,0,0,0,,,,,,,,58.193,-136.419,W,GAFF ROCK,,,,,0,0,,,,,,,,
GLOOMY KNOB,1125,GLOOMY KNOB,A,613,,,1,SE AK,5,11,E,0,0,0,0,,,,,,,,58.8260932,-136.464292,W,GLOOMY KNOB,,,,,,,,,,,,,,
GRAN (LEDGE) POINT,1126,GRAN (LEDGE) POINT,A,159,,,1,SE AK,5,11,E,0,0,0,0,,,,1,,1,1,59.133,-135.240,W,GRAN (LEDGE) POINT,,1,,,927,0,55,,,,,deleted duplicate record (reverse order),,
GRAVES ROCK,1127,GRAVES ROCK,A,145,,,1,SE AK,5,11,E,1,1,0,0,,1,1,1,,,,58.238,-136.757,W,GRAVES ROCK,,1,,,689,0,41,,,,,,,
GRINDALL,1128,GRINDALL,A,114,,,1,SE AK,5,11,E,0,0,0,0,,,,,,,,55.440,-132.108,W,GRINDALL,,1,,,196,0,12,,,,,,,
HAENKE,1129,HAENKE,A,622,,,1,SE AK,5,11,E,0,0,0,0,,,,,,,,59.963,-139.548,W,HAENKE,,,,,997,0,,,,,,,,
HARBOR POINT,1130,HARBOR POINT,A,160,,,1,SE AK,5,11,E,0,1,0,0,,,,,,,,58.605,-137.637,W,HARBOR POINT,,1,,,944,0,56,,,,,,,
HAZY,1131,HAZY,A,113A,1,FROM,1,SE AK,5,11,E,1,1,0,0,1,1,,,,,,55.867,-134.567,W,HAZY/A,HAZY,1,,,179,0,11,,,SM ROCKY I,"N,NW",,,
HAZY,1131,HAZY/B,B,113B,2,TO,0,SE AK,5,11,E,1,1,0,0,1,1,,,,,,55.858,-134.583,W,HAZY/B,HAZY,1,,,179,0,11,,,SM ROCKY I,"N,NW",,,
HORN CLIFF,1132,HORN CLIFF,A,126,,,1,SE AK,5,11,E,0,0,0,0,,,,,,,,56.845,-132.787,W,HORN CLIFF,,1,,,400,0,24,,,,,,,
INIAN,1133,INIAN,A,147,,,1,SE AK,5,11,E,0,0,0,0,,,,,,,,58.272,-136.400,W,INIAN,,1,,,723,0,43,,,,,,,
JACOB ROCK,1134,JACOB ROCK,A,121,,,1,SE AK,5,11,E,0,1,0,0,,,,,,,,56.788,-135.497,W,JACOB ROCK,,1,,,315,0,19,,,,,,,
KAIUCHALI (BIORKA),1135,KAIUCHALI (BIORKA),A,122,,,1,SE AK,5,11,E,0,0,0,0,,,,1,,1,1,56.833,-135.563,W,KAIUCHALI (BIORKA),,1,,,332,0,20,,,,,Deleted duplicata(Biorka/Kaiuchali),,
LARCH BAY,1136,LARCH BAY,A,118,,,1,SE AK,5,11,E,0,0,0,0,,,,,,,,56.210,-134.737,W,LARCH BAY,,1,,,264,0,16,,,,,,,
LIBBY ISLAND,,LIBBY ISLAND,A,,,,,SE AK,5,11,E,0,,,,,,,,,,,58.271,-136.792,W,,,,,,,,,,,,,NEW SITE FROM ADFG APRIL2018 SURVEYS 200+ SEA LIONS,,
LISENOI,1137,LISENOI,A,614,,,1,SE AK,5,11,E,0,0,0,0,,,,,,,,56.497922,-132.480062,W,LISENOI,,,,,,,,,,,,,,
LITTLE ISLAND,1138,LITTLE ISLAND,A,571,,,1,SE AK,5,11,E,0,0,0,0,,,,,,1,1,58.530,-135.050,W,LITTLE ISLAND,,1,,,884,0,,,,,,Added 1/21/04 by RT to accomadate ADF&G captures.,,
MET POINT,1139,MET POINT,A,157,,,1,SE AK,5,11,E,0,0,0,0,,,,,,,,58.933,-135.167,W,MET POINT,,1,,,893,0,53,,,,,,,
MIDDLE PASS ROCK,1140,MIDDLE PASS ROCK,A,558,,,1,SE AK,5,11,E,0,0,0,0,,,,,,,,58.251,-136.388,W,MIDDLE PASS ROCK,,,,,0,0,,,,,,,,
MIST,1141,MIST,A,155,,,1,SE AK,5,11,E,0,0,0,0,,,,,,,,57.988,-133.845,W,MIST,,1,,,859,0,51,,,,,,,
NOSE POINT,1142,NOSE POINT,A,615,,,1,SE AK,5,11,E,0,0,0,0,,,,,,,,55.80489,-131.7077,W,NOSE POINT,,,,,,,,,,,,,,
PATTERSON POINT,1143,PATTERSON POINT,A,124,,,1,SE AK,5,11,E,0,0,0,0,,,,,,,,56.540,-134.637,W,PATTERSON POINT,,1,,,366,0,22,,,,,,,
PINTA ROCKS,1144,PINTA ROCKS,A,128,,,1,SE AK,5,11,E,0,0,0,0,,,,,,,,57.087,-134.012,W,PINTA ROCKS,,1,,,434,0,26,,,,,,,
POINT CAROLUS,1145,POINT CAROLUS,A,148,,,1,SE AK,5,11,E,0,0,0,0,,,,,,1,1,58.367,-136.033,W,POINT CAROLUS,,1,,,740,0,44,,,,,,,
POINT ISLET (POINT ROCK),1146,POINT ISLET (POINT ROCK),A,99,,,1,SE AK,5,11,E,0,0,0,0,,,,,,,,55.153,-132.638,W,POINT ISLET (POINT ROCK),,1,,,43,0,3,,,,,Deleted duplicate (Pt Rock/Pt Islet),,
POINT LEAGUE (STEVENS PASSAGE),1147,POINT LEAGUE (STEVENS PASSAGE),A,137,,,1,SE AK,5,11,E,0,0,0,0,,,,,,,,57.607,-133.642,W,POINT LEAGUE (STEVENS PASSAGE),,1,,,553,0,33,,,,,deleted duplicate site (reverse order),,
POINT LULL,1148,POINT LULL,A,138,,,1,SE AK,5,11,E,0,0,0,0,,,,1,,,,57.310,-134.807,W,POINT LULL,,1,,,570,0,34,,,,,,,
POINT MARSDEN,1149,POINT MARSDEN,A,152,,,1,SE AK,5,11,E,0,0,0,0,,,,,,,,58.050,-134.808,W,POINT MARSDEN,,1,,,808,0,48,,,0,,,,
POINT MARSH,1150,POINT MARSH,A,98,,,1,SE AK,5,11,E,0,0,0,0,,,,,,,,54.710,-132.285,W,POINT MARSH,,1,,,26,0,2,,,,,,,
ROCKY ISLAND,1151,ROCKY ISLAND,A,608,,,1,SE AK,5,11,E,0,0,0,0,,,,,,,,58.178,-135.051,W,ROCKY ISLAND,,,,,,,,,,,,,,
ROUND ROCK,1152,ROUND ROCK,A,130,,,1,SE AK,5,11,E,0,0,0,0,,,,,,,,57.259506,-133.936457,W,ROUND ROCK,,1,,,468,0,28,,,,,,,
SAIL,1153,SAIL,A,134,,,1,SE AK,5,11,E,0,0,0,0,,,,,,1,1,57.352,-133.722,W,SAIL,,1,,,502,0,30,,,,,,,
SAKIE POINT,1154,SAKIE POINT,A,108,,,1,SE AK,5,11,E,0,0,0,0,,,,,,,,55.055,-133.237,W,SAKIE POINT,,1,,,94,0,6,,,,,,,
SEA LION ISLANDS,1155,SEA LION ISLANDS,A,140,,,1,SE AK,5,11,E,0,1,0,0,,,,,,,,57.283,-135.883,W,SEA LION ISLANDS,,1,,,604,0,36,,,,,,,
SEA LION ROCK (PUFFIN BAY),1156,SEA LION ROCK (PUFFIN BAY),A,119,,,1,SE AK,5,11,E,0,0,0,0,,,,,,,,56.252,-134.832,W,SEA LION ROCK (PUFFIN BAY),,1,,,281,0,17,,,,,,,
SITKAGI BLUFFS,1157,SITKAGI BLUFFS,A,162,,,1,SE AK,5,11,E,0,1,0,0,,,,,,,,59.708,-140.650,W,SITKAGI BLUFFS,,1,,,19,0,58,,,,,,462.48,-1881
SITUK,1158,SITUK,A,621A,,,1,SE AK,5,11,E,0,0,0,0,,,,,,,,59.424,-139.537,W,SITUK/A,SITUK,,,,,,,,,,,,445.44,-2007.78
SITUK,1158,SITUK/B,B,621B,,,1,SE AK,5,11,E,0,0,0,0,,,,,,,,59.389,-139.406,W,SITUK/B,SITUK,,,,,,,,,,,,,
SOUTH MARBLE,1159,SOUTH MARBLE,A,149,,,1,SE AK,5,11,E,0,0,0,0,,,,,1,1,1,58.645,-136.047,W,SOUTH MARBLE,,1,,,757,0,45,,,,,,,
ST. LAZARIA,1160,ST. LAZARIA,A,123,,,1,SE AK,5,11,E,0,0,0,0,,,,,,,,56.987,-135.705,W,ST. LAZARIA,,1,,,349,0,21,,,,,,,
SUKOI ISLETS,1161,SUKOI ISLETS,A,127,,,1,SE AK,5,11,E,0,0,0,0,,,,,,,,56.892,-132.923,W,SUKOI ISLETS,,,,,417,0,25,,,,,,,
SUNSET,1162,SUNSET,A,136,,,1,SE AK,5,11,E,0,0,0,0,,,,1,,1,1,57.500,-133.588,W,SUNSET,,1,,,536,0,32,,,,,,,
SUNSET POINT,1163,SUNSET POINT,A,616,,,1,SE AK,5,11,E,0,0,0,0,,,,,,,,57.490509,-133.527154,W,SUNSET POINT,,,,,,,,,,,,,,
TARR INLET,1164,TARR INLET,A,559,,,1,SE AK,5,11,E,0,0,0,0,,,,,,,,58.939873,-136.918448,W,TARR INLET,,,,,0,0,,,,,,,,
TENAKEE CANNERY POINT,1165,TENAKEE CANNERY POINT,A,139,,,1,SE AK,5,11,E,0,0,0,0,,,,,,,,57.775,-135.072,W,TENAKEE CANNERY POINT,,1,,,587,0,35,,,,,,,
THE BROTHERS,1166,THE BROTHERS/SW,A,133,,,1,SE AK,5,11,E,0,1,0,0,,,,,1,1,1,57.272,-133.873,W,THE BROTHERS/SW,THE BROTHERS,1,,,485,2,29.4,2,0,0,,,,
THE BROTHERS,1166,THE BROTHERS/W+E,B,132,,,1,SE AK,5,11,E,0,1,0,0,,,,,,1,1,57.300,-133.833,W,THE BROTHERS/W+E,THE BROTHERS,1,,,485,1,29.2,2,0,0,,,,
THE SISTERS,1167,THE SISTERS,A,151,,,1,SE AK,5,11,E,0,0,0,0,,,,,,,,58.172,-135.257,W,THE SISTERS,,1,,,791,0,47,,,,,,,
TIMBERED,1168,TIMBERED,A,111,,,1,SE AK,5,11,E,0,0,0,0,,,,1,,1,,55.697,-133.795,W,TIMBERED,,1,,,145,0,9,,,,,,,
TURNABOUT,1169,TURNABOUT,A,129,,,1,SE AK,5,11,E,0,1,0,0,,,,,,,,57.130,-133.972,W,TURNABOUT,,1,,,451,0,27,,,,,,,
VENISA,1170,VENISA,A,146,,,1,SE AK,5,11,E,0,0,0,0,,,,,,,,58.312,-136.850,W,VENISA,,1,,,706,0,42,,,,,,,
WALTER (PORT HOUGHTON),1171,WALTER (PORT HOUGHTON),A,617,,,1,SE AK,5,11,E,0,0,0,0,,,,,,,,57.310292,-133.291598,W,WALTER (PORT HOUGHTON),,,,,,,,,,,,,,
WEST ROCK,1172,WEST ROCK,A,97,,,1,SE AK,5,11,E,0,0,0,0,,,,,,,,54.813,-131.495,W,WEST ROCK,,1,,,9,0,1,,,,,,,
WHITE SISTERS,1173,WHITE SISTERS,A,142,,,1,SE AK,5,11,E,1,1,0,0,1,1,1,,,,,57.635,-136.257,W,WHITE SISTERS,,1,,,638,0,38,,,,SE,,,
WOLF ROCK,1174,WOLF ROCK,A,107,,,1,SE AK,5,11,E,0,0,0,0,,,,,,,,55.020,-133.487,W,WOLF ROCK,,1,,,77,0,5,,,,,,,
YASHA,1175,YASHA,A,125,,,1,SE AK,5,11,E,0,0,0,0,,,,,1,1,1,56.963,-134.558,W,YASHA,,1,,,383,0,23,,,,,,,
AGATTU,101,AGATTU/CAPE SABAK,A,469A,1,FROM,1,W ALEU,11,1,W,1,1,1,1,1,1,1,,,,,52.375,173.722,E,AGATTU/CAPE SABAK/A,AGATTU,1,,AGSB1,687,1,325.5,2,,BOULDER BE,"S,SW",,,
AGATTU,101,AGATTU/CAPE SABAK/B,B,469B,2,,0,W ALEU,11,1,W,1,1,1,1,1,1,1,,,,,52.363,173.696,E,AGATTU/CAPE SABAK/B,AGATTU,1,,AGSB1,687,1,325.5,2,,BOULDER BE,"S,SW",,,
AGATTU,101,AGATTU/CAPE SABAK/C,C,469C,3,TO,0,W ALEU,11,1,W,1,1,1,1,1,1,1,,,,,52.363,173.690,E,AGATTU/CAPE SABAK/C,AGATTU,1,,AGSB1,687,1,325.5,2,,BOULDER BE,"S,SW",,,
AGATTU,101,AGATTU/CAPE SABAK/D,D,469D,4,,0,W ALEU,11,1,W,0,1,1,1,,,,,,,,52.350,173.652,E,AGATTU/CAPE SABAK/D,AGATTU,1,,,,,,,,,,updated 3/12/14,,
AGATTU,101,AGATTU/GILLON POINT,E,470,,,1,W ALEU,11,1,W,1,1,1,1,1,1,1,,,,,52.402,173.355,E,AGATTU/GILLON POINT,AGATTU,1,,AGGL1,687,2,326,2,,,,,,
ALAID,102,ALAID,A,467A,1,FROM,1,W ALEU,11,1,W,0,1,1,1,,,,1,1,1,1,52.775,173.858,E,ALAID/A,ALAID,1,1,ALAI1,562,0,324.0,,,,,,,
ALAID,102,ALAID/B,B,467B,2,,0,W ALEU,11,1,W,0,1,1,1,,,,1,1,1,1,52.769,173.887,E,ALAID/B,ALAID,1,1,ALAI1,562,0,324.0,,,,,,,
ALAID,102,ALAID/C,C,467C,3,TO,0,W ALEU,11,1,W,0,1,1,1,,,,1,1,1,1,52.750,173.942,E,ALAID/C,ALAID,1,1,ALAI1,562,0,324.0,,,,,,,
ATTU,103,ATTU/CAPE WRANGELL,A,477A,1,FROM,1,W ALEU,11,1,W,1,0,1,1,1,1,1,,,,,52.910,172.465,E,ATTU/CAPE WRANGELL/A,ATTU,1,,WRNG1,937,5,328.5,2,,BOULDER BE,SW,,,
ATTU,103,ATTU/CAPE WRANGELL/B,B,477B,2,TO,0,W ALEU,11,1,W,1,0,1,1,1,1,1,,,,,52.923,172.453,E,ATTU/CAPE WRANGELL/B,ATTU,1,,WRNG1,937,5,328.5,2,,BOULDER BE,SW,,,
ATTU,103,ATTU/CHICHAGOF POINT,C,475,,,1,W ALEU,11,1,W,0,0,1,0,,,,,,,,52.943,173.265,E,ATTU/CHICHAGOF POINT,ATTU,,,CHCHG,937,3,328.3,2,,OFFSHORE R,,,,
ATTU,103,ATTU/CHIRIKOF POINT,D,474,,,1,W ALEU,11,1,W,0,0,1,0,,,,1,1,,1,52.829,173.433,E,ATTU/CHIRIKOF POINT,ATTU,,1,ATTUC,937,2,328.2,2,,OFFSHORE R,,,,
ATTU,103,ATTU/KRESTA POINT,E,476,,,1,W ALEU,11,1,W,0,0,1,0,,,,,,,,53.003,172.633,E,ATTU/KRESTA POINT,ATTU,,,KRSTA,937,4,328.4,2,,,,,,
ATTU,103,ATTU/MASSACRE BAY,F,473,,,1,W ALEU,11,1,W,0,0,1,0,,,,,,,,52.783,173.150,E,ATTU/MASSACRE BAY,ATTU,,,MASCR,937,1,328.1,2,,,,,,
BULDIR,105,BULDIR/EAST CAPE,A,461,,,1,W ALEU,11,1,W,1,0,1,1,1,1,1,,,,,52.360,175.973,E,BULDIR/EAST CAPE,BULDIR,,,BLDRE,62,1,319.1,2,,,,,,
BULDIR,105,BULDIR/NW ROCKS,B,463,,,1,W ALEU,11,1,W,0,1,1,1,1,1,1,,,,,52.386,175.847,E,BULDIR/NW ROCKS,BULDIR,1,,BLDRN,62,3,319.3,2,,,,,,
BULDIR,105,BULDIR/ROOKERY,C,462A,1,FROM,1,W ALEU,11,1,W,1,1,1,1,1,1,1,,,,,52.338,175.901,E,BULDIR/ROOKERY/A,BULDIR,1,,BLDR1,62,2,319.2,2,,OFFSH SLAB,SW,,,
BULDIR,105,BULDIR/ROOKERY/B,D,462B,2,TO,0,W ALEU,11,1,W,1,1,1,1,1,1,1,,,,,52.340,175.898,E,BULDIR/ROOKERY/B,BULDIR,1,,BLDR1,62,2,319.2,2,,OFFSH SLAB,SW,,,
DAN'S ROCKS,104,DAN'S ROCKS,A,471,,,1,W ALEU,11,1,W,0,0,0,0,,,,,,,,52.775,173.292,E,DAN'S ROCKS,,,,DANRK,812,0,327,,,,,,,
INGENSTREM ROCKS,106,INGENSTREM ROCKS,A,464,,,1,W ALEU,11,1,W,0,0,0,0,,,,,,,,52.637,174.520,E,INGENSTREM ROCKS,,,,INGEN,187,0,321,,,,,,,
NIZKI,107,NIZKI,A,466,,,1,W ALEU,11,1,W,0,0,0,0,,,,,,,,52.750,173.983,E,NIZKI,,,,NIZKI,437,0,323,,,,,,,
SHEMYA,108,SHEMYA,A,465,,,1,W ALEU,11,1,W,0,0,1,1,,,,1,1,1,1,52.733,174.145,E,SHEMYA,,,1,SHEMY,312,0,322,,,,,,,
ATKINS,702,ATKINS,A,260A,1,FROM,1,W GULF,8,7,W,1,1,1,1,1,1,1,,,,,55.055,-159.293,W,ATKINS/A,ATKINS,1,,ATKNS,284,0,151,,"""3,4""","""BOULDER B",S,,,
ATKINS,702,ATKINS/B,B,260B,2,TO,0,W GULF,8,7,W,1,1,1,1,1,1,1,,,,,55.052,-159.313,W,ATKINS/B,ATKINS,1,,ATKNS,284,0,151,,"""3,4""","""BOULDER B",S,,,
ATKULIK,803,ATKULIK,A,251,,,1,W GULF,8,8,W,0,0,0,1,,,,,,,,56.282,-157.733,W,ATKULIK,,,,ATKUL,41,0,142,,,,,,,
BIG KONIUJI,703,BIG KONIUJI,A,259,,,1,W GULF,8,7,W,0,0,0,1,,,,,,,,55.250,-159.533,W,BIG KONIUJI,,,,BKONJ,257,0,150,,,,,,,
BIRD,704,BIRD,A,292,,,1,W GULF,8,7,W,0,1,1,1,,,,1,1,1,1,54.666,-163.285,W,BIRD,,,1,BIRD1,932,0,175,,"""4,5""","""SLAB-ROCK",W,,,
BIRD (SHUMAGINS),705,BIRD (SHUMAGINS),A,596,,,1,W GULF,8,7,W,0,0,0,0,,,,,,,,54.814,-159.821,W,BIRD (SHUMAGINS),,,,,,,,,,,,,,
CASTLE ROCK,706,CASTLE ROCK,A,258,,,1,W GULF,8,7,W,0,1,1,1,,,,1,1,1,1,55.276,-159.493,W,CASTLE ROCK,,,1,CASTL,230,0,149,,3,ROCKY,,,,
CATON,707,CATON,A,289,,,1,W GULF,8,7,W,0,0,0,1,,,,1,1,,1,54.387,-162.341,W,CATON,,,,CATON,851,0,172,,,,,,,
CHANKLIUT,807,CHANKLIUT,A,253,,,1,W GULF,8,8,W,0,0,0,1,,,,,,,,56.133,-158.117,W,CHANKLIUT,,,,CHANK,95,0,144,,,,,,,
CHERNABURA,708,CHERNABURA,A,261A,1,FROM,1,W GULF,8,7,W,1,1,1,1,1,1,1,,,,,54.757,-159.600,W,CHERNABURA/A,CHERNABURA,1,1,CHRN1,311,0,152,,"""4,5""","""SLAB-ROCK",S,,,
CHERNABURA,708,CHERNABURA/B,B,261B,2,TO,0,W GULF,8,7,W,1,1,1,1,1,1,1,,,,,54.751,-159.548,W,CHERNABURA/B,CHERNABURA,1,1,CHRN1,311,0,152,,"""4,5""","""SLAB-ROCK",S,,,
CHERNI,709,CHERNI,A,287,,,1,W GULF,8,7,W,0,0,1,1,,,,,,,,54.633,-162.367,W,CHERNI,,,,CHERN,797,0,170,,,,,,,
CLUBBING ROCKS,710,CLUBBING ROCKS NORTH,A,285A,,,1,W GULF,8,7,W,1,1,1,1,1,1,1,,,,,54.713,-162.445,W,CLUBBING ROCKS NORTH/A,CLUBBING ROCKS,1,,CLUBN,770,1,169.1,2,4,SLAB-ROCK ,"""E,S""",,,
CLUBBING ROCKS,710,CLUBBING ROCKS NORTH/B,B,285B,,,1,W GULF,8,7,W,1,1,1,1,1,1,1,,,,,54.736,-162.469,W,CLUBBING ROCKS NORTH/B,CLUBBING ROCKS,1,,CLUBN,770,1,169.1,2,4,SLAB-ROCK ,"""E,S""",,,
CLUBBING ROCKS,710,CLUBBING ROCKS SOUTH,C,286,,,1,W GULF,8,7,W,1,1,1,1,1,1,1,,,,,54.700,-162.445,W,CLUBBING ROCKS SOUTH,CLUBBING ROCKS,1,,CLUBS,770,2,169.2,2,4,SLAB-ROCK ,"""E,S""",,,
EGG (SAND POINT),711,EGG (SAND POINT),A,268,,,1,W GULF,8,7,W,0,0,0,1,,,,,,,,55.277,-160.517,W,EGG (SAND POINT),,,,EGGSP,446,0,158,,,,,,,
HAGUE ROCK,712,HAGUE ROCK,A,288,,,1,W GULF,8,7,W,0,0,0,1,,,,,,,,54.556,-162.401,W,HAGUE ROCK,,,,HAGUE,824,0,171,,4,SLAB-ROCK ,,,,
HUNT,713,HUNT,A,281,,,1,W GULF,8,7,W,0,0,0,0,,,,,,,,54.757,-162.248,W,HUNT,,,,HUNTI,689,0,167.5,,,,,,,
JUDE,714,JUDE,A,273,,,1,W GULF,8,7,W,1,0,1,1,,1,1,1,,,,55.262,-161.104,W,JUDE,,1,1,JUDEI,527,0,162,,4,SLAB-ROCK ,S,,,
KAK,810,KAK,A,252,,,1,W GULF,8,8,W,0,0,1,1,,,,,1,,1,56.288,-157.835,W,KAK,,,,KAKIS,68,0,143,,4,SLAB-ROCK ,"""SE,SW""",,,
KUPREANOF POINT,716,KUPREANOF POINT,A,257,,,1,W GULF,8,7,W,0,0,1,1,,,,,1,,1,55.565,-159.603,W,KUPREANOF POINT,,,,KUPRE,203,0,148,,6,OFFSHORE R,SE,updated 3/12/14,,
LIGHTHOUSE ROCKS,818,LIGHTHOUSE ROCKS,A,250,,,1,W GULF,8,8,W,1,0,1,1,,1,1,1,,,,55.778,-157.408,W,LIGHTHOUSE ROCKS,,1,,LIGHT,14,0,141,,4,SLAB-ROCK ,N,,,
MITROFANIA,819,MITROFANIA,A,255,,,1,W GULF,8,8,W,0,0,1,1,,,,,1,1,1,55.842,-158.703,W,MITROFANIA,,,1,MITRO,149,0,146,,4,SLAB-ROCK ,,,,
NAGAI/MOUNTAIN POINT,717,NAGAI/MOUNTAIN POINT,A,266A,1,FROM,1,W GULF,8,7,W,0,1,1,1,,,,1,1,1,1,54.915,-160.254,W,NAGAI/MOUNTAIN POINT/A,NAGAI/MOUNTAIN POINT,,,MTPT1,419,1,156,,5,OFFSHORE S,W,updated 3/12/14,,
NAGAI/MOUNTAIN POINT,717,NAGAI/MOUNTAIN POINT/B,B,266B,2,,0,W GULF,8,7,W,0,1,1,1,,,,1,1,1,1,54.904,-160.251,W,NAGAI/MOUNTAIN POINT/B,NAGAI/MOUNTAIN POINT,,,MTPT1,419,1,156,,5,OFFSHORE S,W,updated 3/12/14,,
NAGAI/MOUNTAIN POINT,717,NAGAI/MOUNTAIN POINT/C,C,266C,3,TO,0,W GULF,8,7,W,0,1,1,1,,,,1,1,1,1,54.872,-160.231,W,NAGAI/MOUNTAIN POINT/C,NAGAI/MOUNTAIN POINT,,,MTPT1,419,1,156,,5,OFFSHORE S,W,updated 3/12/14,,
NAGAI/RK W OF CAPE WEDGE,718,NAGAI/RK W OF CAPE WEDGE,A,267,,,1,W GULF,8,7,W,0,0,0,1,,,,,,,,55.242,-159.958,W,NAGAI/RK W OF CAPE WEDGE,,,,WEDGE,419,2,157,,,,,,,
OLGA ROCKS,719,OLGA ROCKS NE,A,277,,,1,W GULF,8,7,W,0,0,0,1,,,,,1,1,1,55.008,-161.497,W,OLGA ROCKS NE,OLGA ROCKS,,1,OLGAN,608,1,165.1,2,5,OFFSHORE R,ALL,,,
OLGA ROCKS,719,OLGA ROCKS SW,B,278,,,1,W GULF,8,7,W,0,0,0,1,,,,,1,1,1,54.985,-161.515,W,OLGA ROCKS SW,OLGA ROCKS,,1,OLGAS,608,2,165.2,2,5,OFFSHORE R,ALL,,,
OMEGA,720,OMEGA,A,274,,,1,W GULF,8,7,W,0,0,0,1,,,,,,,,55.242,-161.242,W,OMEGA,,,,OMEGA,554,0,163,,,,,,,
PAUL,721,PAUL,A,565,,,1,W GULF,8,7,W,0,0,0,0,,,,,,,,55.758,-159.300,W,PAUL,,,,,0,0,,,,,,,,
PINNACLE ROCK,722,PINNACLE ROCK,A,280A,1,FROM,1,W GULF,8,7,W,1,1,1,1,1,1,1,,,,,54.772,-161.764,W,PINNACLE ROCK/A,PINNACLE ROCK,1,,PINCL,662,0,167,,4,SLAB-ROCK ,ALL,,,
PINNACLE ROCK,722,PINNACLE ROCK/B,B,280B,2,TO,0,W GULF,8,7,W,1,1,1,1,1,1,1,,,,,54.767,-161.764,W,PINNACLE ROCK/B,PINNACLE ROCK,1,,PINCL,662,0,167,,4,SLAB-ROCK ,ALL,,,
SANAK,724,SANAK,A,291,,,1,W GULF,8,7,W,0,0,0,0,,,,,,1,1,54.383,-162.583,W,SANAK,,,,SANAK,905,0,174,,,,,,,
SEA LION ROCKS (SHUMAGINS),725,SEA LION ROCKS (SHUMAGINS),A,269,,,1,W GULF,8,7,W,0,1,1,1,,,,1,1,1,1,55.077,-160.520,W,SEA LION ROCKS (SHUMAGINS),,,1,SLR2S,473,0,159,,4,SLAB-ROCK ,E,,,
SEAL CAPE,822,SEAL CAPE,A,254,,,1,W GULF,8,8,W,0,0,0,1,,,,,,,,55.997,-158.422,W,SEAL CAPE,,,,SEALC,122,0,145,,,,,,,
SIMEONOF,726,SIMEONOF,A,601,,,1,W GULF,8,7,W,0,0,0,0,,,,,,,,54.862,-159.254,W,SIMEONOF,,,,,,,,,,,,,,
SOUTH ROCKS,727,SOUTH ROCKS,A,290,,,1,W GULF,8,7,W,1,0,1,1,,1,1,1,,,,54.302,-162.689,W,SOUTH ROCKS,,1,1,SORKS,878,0,173,,4,SLAB-ROCK ,W,,,
SOZAVARIKA,728,SOZAVARIKA,A,282,,,1,W GULF,8,7,W,0,0,0,0,,,,,,,,54.857,-162.523,W,SOZAVARIKA,,,,SOZAV,716,0,167.6,,,,,,,
SPITZ,823,SPITZ,A,256,,,1,W GULF,8,8,W,0,1,1,1,,,,1,1,,1,55.777,-158.898,W,SPITZ,,,,SPITZ,176,0,147,,5,OFFSHORE S,,,,
SUSHILNOI ROCKS,729,SUSHILNOI ROCKS,A,279A,1,FROM,1,W GULF,8,7,W,1,0,0,1,,1,1,,,,,54.834,-161.741,W,SUSHILNOI ROCKS/A,SUSHILNOI ROCKS,1,1,SUSHI,635,0,166,,5,OFFSHORE S,ALL,,,
SUSHILNOI ROCKS,729,SUSHILNOI ROCKS/B,B,279B,2,TO,0,W GULF,8,7,W,1,0,0,1,,1,1,,,,,54.821,-161.712,W,SUSHILNOI ROCKS/B,SUSHILNOI ROCKS,1,1,SUSHI,635,0,166,,5,OFFSHORE S,ALL,,,
THE HAYSTACKS,730,THE HAYSTACKS,A,263,,,1,W GULF,8,7,W,0,0,1,1,,,,,,,,55.268,-160.057,W,THE HAYSTACKS,,,,HAYST,365,0,154,,4,SM ROCKY I,,updated 3/12/14,,
THE WHALEBACK,731,THE WHALEBACK,A,264,,,1,W GULF,8,7,W,1,0,1,1,,1,1,1,,,,55.280,-160.084,W,THE WHALEBACK,,1,1,WHALE,392,0,155,,4,SLAB-ROCK ,S,,,
TWINS,734,TWINS,A,262,,,1,W GULF,8,7,W,0,0,0,1,,,,,,,,54.960,-159.876,W,TWINS,,,,TWINS,338,0,153,,,,,,,
UMGA,736,UMGA,A,283,,,1,W GULF,8,7,W,0,0,0,0,,,,,,,,54.800,-162.725,W,UMGA,,,,UMGAI,743,0,168,,,,,,,
UNGA/ACHEREDIN POINT,737,UNGA/ACHEREDIN POINT,A,272A,1,FROM,1,W GULF,8,7,W,0,0,1,1,,,,,1,1,1,55.121,-160.818,W,UNGA/ACHEREDIN POINT/A,UNGA/ACHEREDIN POINT,,,ACHER,500,2,161,,6,OFFSHORE R,W,,,
UNGA/ACHEREDIN POINT,737,UNGA/ACHEREDIN POINT/B,B,272B,2,TO,0,W GULF,8,7,W,0,0,1,1,,,,,1,1,1,55.118,-160.822,W,UNGA/ACHEREDIN POINT/B,UNGA/ACHEREDIN POINT,,,ACHER,500,2,161,,6,OFFSHORE R,W,,,
UNGA/CAPE UNGA,738,UNGA/CAPE UNGA,A,271,,,1,W GULF,8,7,W,0,0,0,1,,,,,,,,55.127,-160.535,W,UNGA/CAPE UNGA,,,,UNGAC,500,1,160,,,,,,,
WOSNESENSKI,741,WOSNESENSKI,A,275,,,1,W GULF,8,7,W,0,0,0,1,,,,,,,,55.167,-161.417,W,WOSNESENSKI,,,,WOSNE,581,0,164,,,,,,,